{
  "type": "FeatureCollection",
  "features": [
    {
      "type": "Feature",
      "geometry": {
        "type": "Point",
        "coordinates": [
          11.1258417,
          46.0679776
        ]
      },
      "properties": {
        "number": "820803",
        "name": "BAR CARASAU",
        "address": "V. GALILEO GALILEI",
        "city": "TRENTO",
        "postalCode": "38122",
        "province": "TN",
        "region": "TN",
        "fraction": "TRENTO",
        "type": "TC",
        "closingDay": "",
        "vatNumber": "",
        "supplierName": "",
        "code": "0"
      }
    },
    {
      "type": "Feature",
      "geometry": {
        "type": "Point",
        "coordinates": [
          11.1242696,
          46.067132
        ]
      },
      "properties": {
        "number": "644723",
        "name": "JO' BAR",
        "address": "V. CALEPINA",
        "city": "TRENTO",
        "postalCode": "38122",
        "province": "TN",
        "region": "TN",
        "fraction": "TRENTO",
        "type": "TF",
        "closingDay": "",
        "vatNumber": "",
        "supplierName": "",
        "code": "0"
      }
    },
    {
      "type": "Feature",
      "geometry": {
        "type": "Point",
        "coordinates": [
          11.1248393,
          46.0678523
        ]
      },
      "properties": {
        "number": "137834",
        "name": "CITY BAR",
        "address": "V. ROGGIA GRANDE",
        "city": "TRENTO",
        "postalCode": "38122",
        "province": "TN",
        "region": "TN",
        "fraction": "TRENTO",
        "type": "TC",
        "closingDay": "",
        "vatNumber": "",
        "supplierName": "",
        "code": "0"
      }
    },
    {
      "type": "Feature",
      "geometry": {
        "type": "Point",
        "coordinates": [
          11.1250027,
          46.0683139
        ]
      },
      "properties": {
        "number": "815915",
        "name": "BISTROT 18 08",
        "address": "L.GO GIOSUE' CARDUCCI",
        "city": "TRENTO",
        "postalCode": "38122",
        "province": "TN",
        "region": "TN",
        "fraction": "TRENTO",
        "type": "TC",
        "closingDay": "",
        "vatNumber": "",
        "supplierName": "",
        "code": "0"
      }
    },
    {
      "type": "Feature",
      "geometry": {
        "type": "Point",
        "coordinates": [
          11.1241504,
          46.0676716
        ]
      },
      "properties": {
        "number": "725930",
        "name": "BOTTEGA DEL CAFFE DERSUT",
        "address": "V. MANTOVA",
        "city": "TRENTO",
        "postalCode": "38122",
        "province": "TN",
        "region": "TN",
        "fraction": "TRENTO",
        "type": "SS",
        "closingDay": "",
        "vatNumber": "",
        "supplierName": "",
        "code": "0"
      }
    },
    {
      "type": "Feature",
      "geometry": {
        "type": "Point",
        "coordinates": [
          11.1240584,
          46.0677568
        ]
      },
      "properties": {
        "number": "776632",
        "name": "PIADIMANIA",
        "address": "V.LO ROGGE",
        "city": "TRENTO",
        "postalCode": "38122",
        "province": "TN",
        "region": "TN",
        "fraction": "TRENTO",
        "type": "FF",
        "closingDay": "",
        "vatNumber": "",
        "supplierName": "",
        "code": "0"
      }
    },
    {
      "type": "Feature",
      "geometry": {
        "type": "Point",
        "coordinates": [
          11.1246466,
          46.0682838
        ]
      },
      "properties": {
        "number": "815905",
        "name": "ALLA TERZA PINSA RISTO WINE",
        "address": "L.GO GIOSUE' CARDUCCI",
        "city": "TRENTO",
        "postalCode": "38122",
        "province": "TN",
        "region": "TN",
        "fraction": "TRENTO",
        "type": "RP",
        "closingDay": "",
        "vatNumber": "",
        "supplierName": "",
        "code": "1"
      }
    },
    {
      "type": "Feature",
      "geometry": {
        "type": "Point",
        "coordinates": [
          11.124877,
          46.0684421
        ]
      },
      "properties": {
        "number": "812585",
        "name": "PIZZA CHEF",
        "address": "L.GO GIOSUE' CARDUCCI",
        "city": "TRENTO",
        "postalCode": "38122",
        "province": "TN",
        "region": "TN",
        "fraction": "TRENTO",
        "type": "RP",
        "closingDay": "",
        "vatNumber": "",
        "supplierName": "",
        "code": "1"
      }
    },
    {
      "type": "Feature",
      "geometry": {
        "type": "Point",
        "coordinates": [
          11.1280292,
          46.0670468
        ]
      },
      "properties": {
        "number": "114640",
        "name": "SOSI A TRENTO DAL 1923",
        "address": "V. GIUSEPPE GRAZIOLI",
        "city": "TRENTO",
        "postalCode": "38122",
        "province": "TN",
        "region": "TN",
        "fraction": "TRENTO",
        "type": "TC",
        "closingDay": "",
        "vatNumber": "",
        "supplierName": "",
        "code": "4"
      }
    },
    {
      "type": "Feature",
      "geometry": {
        "type": "Point",
        "coordinates": [
          11.1237296,
          46.0649078
        ]
      },
      "properties": {
        "number": "673093",
        "name": "BACCUS BAR",
        "address": "P.ZZA FIERA",
        "city": "TRENTO",
        "postalCode": "38122",
        "province": "TN",
        "region": "TN",
        "fraction": "TRENTO",
        "type": "TC",
        "closingDay": "",
        "vatNumber": "",
        "supplierName": "",
        "code": "0"
      }
    },
    {
      "type": "Feature",
      "geometry": {
        "type": "Point",
        "coordinates": [
          11.1234028,
          46.0677885
        ]
      },
      "properties": {
        "number": "749994",
        "name": "PANIFICIO MODERNO",
        "address": "P.ZZA LODRON",
        "city": "TRENTO",
        "postalCode": "38122",
        "province": "TN",
        "region": "TN",
        "fraction": "TRENTO",
        "type": "RI",
        "closingDay": "",
        "vatNumber": "",
        "supplierName": "",
        "code": "6"
      }
    },
    {
      "type": "Feature",
      "geometry": {
        "type": "Point",
        "coordinates": [
          11.1229512,
          46.0664854
        ]
      },
      "properties": {
        "number": "766094",
        "name": "CASTELLI ROMANI",
        "address": "V. SANTISSIMA TRINITA'",
        "city": "TRENTO",
        "postalCode": "38122",
        "province": "TN",
        "region": "TN",
        "fraction": "TRENTO",
        "type": "RI",
        "closingDay": "",
        "vatNumber": "",
        "supplierName": "",
        "code": "0"
      }
    },
    {
      "type": "Feature",
      "geometry": {
        "type": "Point",
        "coordinates": [
          11.1256759,
          46.0693148
        ]
      },
      "properties": {
        "number": "787299",
        "name": "ANFITEATRO",
        "address": "P.TTA ANFITEATRO",
        "city": "TRENTO",
        "postalCode": "38122",
        "province": "TN",
        "region": "TN",
        "fraction": "TRENTO",
        "type": "RP",
        "closingDay": "",
        "vatNumber": "",
        "supplierName": "",
        "code": "0"
      }
    },
    {
      "type": "Feature",
      "geometry": {
        "type": "Point",
        "coordinates": [
          11.122999,
          46.0655576
        ]
      },
      "properties": {
        "number": "809752",
        "name": "CASA LIKA",
        "address": "V. GIUSEPPE MAZZINI",
        "city": "TRENTO",
        "postalCode": "38122",
        "province": "TN",
        "region": "TN",
        "fraction": "TRENTO",
        "type": "RI",
        "closingDay": "",
        "vatNumber": "",
        "supplierName": "",
        "code": "0"
      }
    },
    {
      "type": "Feature",
      "geometry": {
        "type": "Point",
        "coordinates": [
          11.1234332,
          46.0646528
        ]
      },
      "properties": {
        "number": "062362",
        "name": "PEDAVENA BIRRERIA",
        "address": "P.ZZA FIERA",
        "city": "TRENTO",
        "postalCode": "38122",
        "province": "TN",
        "region": "TN",
        "fraction": "TRENTO",
        "type": "RI",
        "closingDay": "",
        "vatNumber": "",
        "supplierName": "",
        "code": "0"
      }
    },
    {
      "type": "Feature",
      "geometry": {
        "type": "Point",
        "coordinates": [
          11.123103,
          46.0651714
        ]
      },
      "properties": {
        "number": "780205",
        "name": "PERGHEM CAFFETTERIA",
        "address": "P.ZZA FIERA",
        "city": "TRENTO",
        "postalCode": "38122",
        "province": "TN",
        "region": "TN",
        "fraction": "TRENTO",
        "type": "TC",
        "closingDay": "",
        "vatNumber": "",
        "supplierName": "",
        "code": "0"
      }
    },
    {
      "type": "Feature",
      "geometry": {
        "type": "Point",
        "coordinates": [
          11.1237472,
          46.0685884
        ]
      },
      "properties": {
        "number": "787494",
        "name": "CA DE GOBJ RISTORANTE PIZZERIA",
        "address": "V. SIMONINO",
        "city": "TRENTO",
        "postalCode": "38122",
        "province": "TN",
        "region": "TN",
        "fraction": "TRENTO",
        "type": "RP",
        "closingDay": "",
        "vatNumber": "",
        "supplierName": "",
        "code": "0"
      }
    },
    {
      "type": "Feature",
      "geometry": {
        "type": "Point",
        "coordinates": [
          11.1229628,
          46.0677981
        ]
      },
      "properties": {
        "number": "779464",
        "name": "COOP TRENTINO SAIT 50",
        "address": "P.ZZA LODRON",
        "city": "TRENTO",
        "postalCode": "38122",
        "province": "TN",
        "region": "TN",
        "fraction": "TRENTO",
        "type": "GS",
        "closingDay": "",
        "vatNumber": "",
        "supplierName": "",
        "code": "18"
      }
    },
    {
      "type": "Feature",
      "geometry": {
        "type": "Point",
        "coordinates": [
          11.1238654,
          46.0637372
        ]
      },
      "properties": {
        "number": "823496",
        "name": "ANIMA CAFFE'",
        "address": "V. SANTA CROCE",
        "city": "TRENTO",
        "postalCode": "38122",
        "province": "TN",
        "region": "TN",
        "fraction": "TRENTO",
        "type": "TC",
        "closingDay": "",
        "vatNumber": "",
        "supplierName": "",
        "code": "1"
      }
    },
    {
      "type": "Feature",
      "geometry": {
        "type": "Point",
        "coordinates": [
          11.1290369,
          46.0668432
        ]
      },
      "properties": {
        "number": "823136",
        "name": "FAMIGLIA COOPERATIVA",
        "address": "V. VERDI",
        "city": "TON",
        "postalCode": "38010",
        "province": "TN",
        "region": "TN",
        "fraction": "TON",
        "type": "GS",
        "closingDay": "",
        "vatNumber": "",
        "supplierName": "",
        "code": "3"
      }
    },
    {
      "type": "Feature",
      "geometry": {
        "type": "Point",
        "coordinates": [
          11.1290369,
          46.0668432
        ]
      },
      "properties": {
        "number": "779455",
        "name": "COOP TRENTINO SAIT 5",
        "address": "V. BRIGATA ACQUI",
        "city": "TRENTO",
        "postalCode": "38122",
        "province": "TN",
        "region": "TN",
        "fraction": "TRENTO",
        "type": "GS",
        "closingDay": "",
        "vatNumber": "",
        "supplierName": "",
        "code": "13"
      }
    },
    {
      "type": "Feature",
      "geometry": {
        "type": "Point",
        "coordinates": [
          11.1224486,
          46.0667988
        ]
      },
      "properties": {
        "number": "823761",
        "name": "FIORENTINA BAR RISTORANTE",
        "address": "V. CALEPINA",
        "city": "TRENTO",
        "postalCode": "38122",
        "province": "TN",
        "region": "TN",
        "fraction": "TRENTO",
        "type": "RI",
        "closingDay": "",
        "vatNumber": "",
        "supplierName": "",
        "code": "1"
      }
    },
    {
      "type": "Feature",
      "geometry": {
        "type": "Point",
        "coordinates": [
          11.1224486,
          46.0667988
        ]
      },
      "properties": {
        "number": "671508",
        "name": "FIORENTINA BAR",
        "address": "V. CALEPINA",
        "city": "TRENTO",
        "postalCode": "38122",
        "province": "TN",
        "region": "TN",
        "fraction": "TRENTO",
        "type": "TC",
        "closingDay": "",
        "vatNumber": "",
        "supplierName": "",
        "code": "0"
      }
    },
    {
      "type": "Feature",
      "geometry": {
        "type": "Point",
        "coordinates": [
          11.1233568,
          46.0640782
        ]
      },
      "properties": {
        "number": "816006",
        "name": "CAPATOAST",
        "address": "V. SANTA CROCE",
        "city": "TRENTO",
        "postalCode": "38122",
        "province": "TN",
        "region": "TN",
        "fraction": "TRENTO",
        "type": "TC",
        "closingDay": "",
        "vatNumber": "",
        "supplierName": "",
        "code": "1"
      }
    },
    {
      "type": "Feature",
      "geometry": {
        "type": "Point",
        "coordinates": [
          11.125413,
          46.069818
        ]
      },
      "properties": {
        "number": "109903",
        "name": "ALLA GROTTA RISTORANTE PIZZERIA",
        "address": "V.LO SAN MARCO",
        "city": "TRENTO",
        "postalCode": "38122",
        "province": "TN",
        "region": "TN",
        "fraction": "TRENTO",
        "type": "RP",
        "closingDay": "",
        "vatNumber": "",
        "supplierName": "",
        "code": "0"
      }
    },
    {
      "type": "Feature",
      "geometry": {
        "type": "Point",
        "coordinates": [
          11.123337,
          46.0640087
        ]
      },
      "properties": {
        "number": "778838",
        "name": "TRE PORTONI BAR",
        "address": "V. SANTA CROCE",
        "city": "TRENTO",
        "postalCode": "38122",
        "province": "TN",
        "region": "TN",
        "fraction": "TRENTO",
        "type": "RI",
        "closingDay": "",
        "vatNumber": "",
        "supplierName": "",
        "code": "0"
      }
    },
    {
      "type": "Feature",
      "geometry": {
        "type": "Point",
        "coordinates": [
          11.12233,
          46.0666
        ]
      },
      "properties": {
        "number": "627648",
        "name": "SAN VIGILIO PASTICCERIA BAR",
        "address": "V. SAN VIGILIO",
        "city": "TRENTO",
        "postalCode": "38122",
        "province": "TN",
        "region": "TN",
        "fraction": "TRENTO",
        "type": "TF",
        "closingDay": "",
        "vatNumber": "",
        "supplierName": "",
        "code": "0"
      }
    },
    {
      "type": "Feature",
      "geometry": {
        "type": "Point",
        "coordinates": [
          11.1291911,
          46.0666206
        ]
      },
      "properties": {
        "number": "631849",
        "name": "MAMMA MIA PIZZA KEBAB",
        "address": "V. BRIGATA ACQUI",
        "city": "TRENTO",
        "postalCode": "38122",
        "province": "TN",
        "region": "TN",
        "fraction": "TRENTO",
        "type": "TA",
        "closingDay": "",
        "vatNumber": "",
        "supplierName": "",
        "code": "1"
      }
    },
    {
      "type": "Feature",
      "geometry": {
        "type": "Point",
        "coordinates": [
          11.1232428,
          46.0688337
        ]
      },
      "properties": {
        "number": "771804",
        "name": "SUSHI ZEN",
        "address": "V. MALPAGA",
        "city": "TRENTO",
        "postalCode": "38122",
        "province": "TN",
        "region": "TN",
        "fraction": "TRENTO",
        "type": "RI",
        "closingDay": "",
        "vatNumber": "",
        "supplierName": "",
        "code": "0"
      }
    },
    {
      "type": "Feature",
      "geometry": {
        "type": "Point",
        "coordinates": [
          11.1292724,
          46.0668476
        ]
      },
      "properties": {
        "number": "102554",
        "name": "SAYONARA BAR",
        "address": "V. BRIGATA ACQUI",
        "city": "TRENTO",
        "postalCode": "38122",
        "province": "TN",
        "region": "TN",
        "fraction": "TRENTO",
        "type": "TF",
        "closingDay": "",
        "vatNumber": "",
        "supplierName": "",
        "code": "0"
      }
    },
    {
      "type": "Feature",
      "geometry": {
        "type": "Point",
        "coordinates": [
          11.1222776,
          46.0656517
        ]
      },
      "properties": {
        "number": "778848",
        "name": "ORSO GRIGIO RISTORANTE PIZZERIA",
        "address": "V. ORTI",
        "city": "TRENTO",
        "postalCode": "38122",
        "province": "TN",
        "region": "TN",
        "fraction": "TRENTO",
        "type": "RP",
        "closingDay": "",
        "vatNumber": "",
        "supplierName": "",
        "code": "2"
      }
    },
    {
      "type": "Feature",
      "geometry": {
        "type": "Point",
        "coordinates": [
          11.1231045,
          46.0638027
        ]
      },
      "properties": {
        "number": "802555",
        "name": "TRE PORTONI RISTORANTE SELF",
        "address": "V. CARD CRISTOFORO MADRUZZO",
        "city": "TRENTO",
        "postalCode": "38122",
        "province": "TN",
        "region": "TN",
        "fraction": "TRENTO",
        "type": "SS",
        "closingDay": "",
        "vatNumber": "",
        "supplierName": "",
        "code": "0"
      }
    },
    {
      "type": "Feature",
      "geometry": {
        "type": "Point",
        "coordinates": [
          11.1249544,
          46.0701184
        ]
      },
      "properties": {
        "number": "715849",
        "name": "LA CANTINOTTA",
        "address": "V. SAN MARCO",
        "city": "TRENTO",
        "postalCode": "38122",
        "province": "TN",
        "region": "TN",
        "fraction": "TRENTO",
        "type": "RI",
        "closingDay": "",
        "vatNumber": "",
        "supplierName": "",
        "code": "0"
      }
    },
    {
      "type": "Feature",
      "geometry": {
        "type": "Point",
        "coordinates": [
          11.1243495,
          46.0699416
        ]
      },
      "properties": {
        "number": "672287",
        "name": "CAFFE' EXCELSIOR",
        "address": "V. SAN PIETRO",
        "city": "TRENTO",
        "postalCode": "38122",
        "province": "TN",
        "region": "TN",
        "fraction": "TRENTO",
        "type": "TC",
        "closingDay": "",
        "vatNumber": "",
        "supplierName": "",
        "code": "0"
      }
    },
    {
      "type": "Feature",
      "geometry": {
        "type": "Point",
        "coordinates": [
          11.1245954,
          46.0701035
        ]
      },
      "properties": {
        "number": "823237",
        "name": "BAR ROSA",
        "address": "V. PIAVE",
        "city": "TRENTO",
        "postalCode": "38122",
        "province": "TN",
        "region": "TN",
        "fraction": "TRENTO",
        "type": "TC",
        "closingDay": "",
        "vatNumber": "",
        "supplierName": "",
        "code": "0"
      }
    },
    {
      "type": "Feature",
      "geometry": {
        "type": "Point",
        "coordinates": [
          11.1245954,
          46.0701035
        ]
      },
      "properties": {
        "number": "736129",
        "name": "LA VIE EN ROSE BAR",
        "address": "V. SAN MARCO",
        "city": "TRENTO",
        "postalCode": "38122",
        "province": "TN",
        "region": "TN",
        "fraction": "TRENTO",
        "type": "TF",
        "closingDay": "",
        "vatNumber": "",
        "supplierName": "",
        "code": "0"
      }
    },
    {
      "type": "Feature",
      "geometry": {
        "type": "Point",
        "coordinates": [
          11.1235342,
          46.0632552
        ]
      },
      "properties": {
        "number": "815843",
        "name": "SANTA CRUZ NON SOLO PIZZA",
        "address": "V. SANTA CROCE",
        "city": "TRENTO",
        "postalCode": "38122",
        "province": "TN",
        "region": "TN",
        "fraction": "TRENTO",
        "type": "RP",
        "closingDay": "",
        "vatNumber": "",
        "supplierName": "",
        "code": "0"
      }
    },
    {
      "type": "Feature",
      "geometry": {
        "type": "Point",
        "coordinates": [
          11.1287889,
          46.0688532
        ]
      },
      "properties": {
        "number": "812277",
        "name": "THAI BREAK",
        "address": "P.ZZA VENEZIA",
        "city": "TRENTO",
        "postalCode": "38122",
        "province": "TN",
        "region": "TN",
        "fraction": "TRENTO",
        "type": "RI",
        "closingDay": "",
        "vatNumber": "",
        "supplierName": "",
        "code": "0"
      }
    },
    {
      "type": "Feature",
      "geometry": {
        "type": "Point",
        "coordinates": [
          11.1276175,
          46.0698518
        ]
      },
      "properties": {
        "number": "806672",
        "name": "SOSI A TRENTO DAL 1923",
        "address": "P.ZZA VENEZIA",
        "city": "TRENTO",
        "postalCode": "38122",
        "province": "TN",
        "region": "TN",
        "fraction": "TRENTO",
        "type": "TC",
        "closingDay": "",
        "vatNumber": "",
        "supplierName": "",
        "code": "16"
      }
    },
    {
      "type": "Feature",
      "geometry": {
        "type": "Point",
        "coordinates": [
          11.1275517,
          46.0629525
        ]
      },
      "properties": {
        "number": "778839",
        "name": "SAPOROSO RISTORANTE",
        "address": "V. MILLE",
        "city": "TRENTO",
        "postalCode": "38122",
        "province": "TN",
        "region": "TN",
        "fraction": "TRENTO",
        "type": "RI",
        "closingDay": "",
        "vatNumber": "",
        "supplierName": "",
        "code": "0"
      }
    },
    {
      "type": "Feature",
      "geometry": {
        "type": "Point",
        "coordinates": [
          11.1234054,
          46.0696092
        ]
      },
      "properties": {
        "number": "791212",
        "name": "PASTICCERIA MOMI",
        "address": "P.ZZA CESARE BATTISTI",
        "city": "TRENTO",
        "postalCode": "38122",
        "province": "TN",
        "region": "TN",
        "fraction": "TRENTO",
        "type": "TC",
        "closingDay": "",
        "vatNumber": "",
        "supplierName": "",
        "code": "0"
      }
    },
    {
      "type": "Feature",
      "geometry": {
        "type": "Point",
        "coordinates": [
          11.1220513,
          46.0678491
        ]
      },
      "properties": {
        "number": "051082",
        "name": "PASI BAR",
        "address": "P.ZZA MARIO PASI",
        "city": "TRENTO",
        "postalCode": "38122",
        "province": "TN",
        "region": "TN",
        "fraction": "TRENTO",
        "type": "TF",
        "closingDay": "",
        "vatNumber": "",
        "supplierName": "",
        "code": "0"
      }
    },
    {
      "type": "Feature",
      "geometry": {
        "type": "Point",
        "coordinates": [
          11.1225088,
          46.068777
        ]
      },
      "properties": {
        "number": "766088",
        "name": "FORST RISTORANTE",
        "address": "V. PAOLO OSS MAZZURANA",
        "city": "TRENTO",
        "postalCode": "38122",
        "province": "TN",
        "region": "TN",
        "fraction": "TRENTO",
        "type": "RI",
        "closingDay": "",
        "vatNumber": "",
        "supplierName": "",
        "code": "2"
      }
    },
    {
      "type": "Feature",
      "geometry": {
        "type": "Point",
        "coordinates": [
          11.1235157,
          46.0630928
        ]
      },
      "properties": {
        "number": "816011",
        "name": "ICHIBAN RAMEN",
        "address": "V. SANTA CROCE",
        "city": "TRENTO",
        "postalCode": "38122",
        "province": "TN",
        "region": "TN",
        "fraction": "TRENTO",
        "type": "RI",
        "closingDay": "",
        "vatNumber": "",
        "supplierName": "",
        "code": "0"
      }
    },
    {
      "type": "Feature",
      "geometry": {
        "type": "Point",
        "coordinates": [
          11.1235801,
          46.0630335
        ]
      },
      "properties": {
        "number": "784371",
        "name": "BISTROT VIENNESE",
        "address": "C.SO TRE NOVEMBRE",
        "city": "TRENTO",
        "postalCode": "38122",
        "province": "TN",
        "region": "TN",
        "fraction": "TRENTO",
        "type": "TF",
        "closingDay": "",
        "vatNumber": "",
        "supplierName": "",
        "code": "0"
      }
    },
    {
      "type": "Feature",
      "geometry": {
        "type": "Point",
        "coordinates": [
          11.1263518,
          46.0624365
        ]
      },
      "properties": {
        "number": "823834",
        "name": "BAR CAFE' CREME",
        "address": "V. PIAVE",
        "city": "TRENTO",
        "postalCode": "38122",
        "province": "TN",
        "region": "TN",
        "fraction": "TRENTO",
        "type": "TF",
        "closingDay": "",
        "vatNumber": "",
        "supplierName": "",
        "code": "0"
      }
    },
    {
      "type": "Feature",
      "geometry": {
        "type": "Point",
        "coordinates": [
          11.1235781,
          46.0629231
        ]
      },
      "properties": {
        "number": "779457",
        "name": "COOP TRENTINO SAIT 10",
        "address": "C.SO TRE NOVEMBRE",
        "city": "TRENTO",
        "postalCode": "38122",
        "province": "TN",
        "region": "TN",
        "fraction": "TRENTO",
        "type": "GS",
        "closingDay": "",
        "vatNumber": "",
        "supplierName": "",
        "code": "15"
      }
    },
    {
      "type": "Feature",
      "geometry": {
        "type": "Point",
        "coordinates": [
          11.1247462,
          46.0704278
        ]
      },
      "properties": {
        "number": "799567",
        "name": "NEW PINSA",
        "address": "V. SUFFRAGIO",
        "city": "TRENTO",
        "postalCode": "38122",
        "province": "TN",
        "region": "TN",
        "fraction": "TRENTO",
        "type": "TA",
        "closingDay": "",
        "vatNumber": "",
        "supplierName": "",
        "code": "0"
      }
    },
    {
      "type": "Feature",
      "geometry": {
        "type": "Point",
        "coordinates": [
          11.1225954,
          46.0690901
        ]
      },
      "properties": {
        "number": "777535",
        "name": "PINGU GELATERIA CAFFETTERIA",
        "address": "V. ARMANDO DIAZ",
        "city": "TRENTO",
        "postalCode": "38122",
        "province": "TN",
        "region": "TN",
        "fraction": "TRENTO",
        "type": "TF",
        "closingDay": "",
        "vatNumber": "",
        "supplierName": "",
        "code": "0"
      }
    },
    {
      "type": "Feature",
      "geometry": {
        "type": "Point",
        "coordinates": [
          11.1299614,
          46.066509
        ]
      },
      "properties": {
        "number": "784245",
        "name": "BARBASS",
        "address": "V. GIUSEPPE GRAZIOLI",
        "city": "TRENTO",
        "postalCode": "38122",
        "province": "TN",
        "region": "TN",
        "fraction": "TRENTO",
        "type": "TC",
        "closingDay": "",
        "vatNumber": "",
        "supplierName": "",
        "code": "0"
      }
    },
    {
      "type": "Feature",
      "geometry": {
        "type": "Point",
        "coordinates": [
          11.122424,
          46.0637527
        ]
      },
      "properties": {
        "number": "818231",
        "name": "VASILICO LA PIZZA",
        "address": "V. CARD CRISTOFORO MADRUZZO",
        "city": "TRENTO",
        "postalCode": "38122",
        "province": "TN",
        "region": "TN",
        "fraction": "TRENTO",
        "type": "RP",
        "closingDay": "",
        "vatNumber": "",
        "supplierName": "",
        "code": "0"
      }
    },
    {
      "type": "Feature",
      "geometry": {
        "type": "Point",
        "coordinates": [
          11.1300615,
          46.0664447
        ]
      },
      "properties": {
        "number": "715708",
        "name": "NI  HAO TAKE AWAY",
        "address": "V. GIUSEPPE GRAZIOLI",
        "city": "TRENTO",
        "postalCode": "38122",
        "province": "TN",
        "region": "TN",
        "fraction": "TRENTO",
        "type": "TA",
        "closingDay": "",
        "vatNumber": "",
        "supplierName": "",
        "code": "0"
      }
    },
    {
      "type": "Feature",
      "geometry": {
        "type": "Point",
        "coordinates": [
          11.1212886,
          46.0660191
        ]
      },
      "properties": {
        "number": "778841",
        "name": "KIKKYS BAR",
        "address": "V. SENATORE CARLO ESTERLE",
        "city": "TRENTO",
        "postalCode": "38122",
        "province": "TN",
        "region": "TN",
        "fraction": "TRENTO",
        "type": "TC",
        "closingDay": "",
        "vatNumber": "",
        "supplierName": "",
        "code": "0"
      }
    },
    {
      "type": "Feature",
      "geometry": {
        "type": "Point",
        "coordinates": [
          11.1212621,
          46.0659035
        ]
      },
      "properties": {
        "number": "131719",
        "name": "GRAZIANO'S NON SOLO PIZZA",
        "address": "V. SENATORE CARLO ESTERLE",
        "city": "TRENTO",
        "postalCode": "38122",
        "province": "TN",
        "region": "TN",
        "fraction": "TRENTO",
        "type": "TA",
        "closingDay": "",
        "vatNumber": "",
        "supplierName": "",
        "code": "1"
      }
    },
    {
      "type": "Feature",
      "geometry": {
        "type": "Point",
        "coordinates": [
          11.1214976,
          46.0681587
        ]
      },
      "properties": {
        "number": "778941",
        "name": "SUBWAY",
        "address": "V. RODOLFO BELENZANI",
        "city": "TRENTO",
        "postalCode": "38122",
        "province": "TN",
        "region": "TN",
        "fraction": "TRENTO",
        "type": "FF",
        "closingDay": "",
        "vatNumber": "",
        "supplierName": "",
        "code": "0"
      }
    },
    {
      "type": "Feature",
      "geometry": {
        "type": "Point",
        "coordinates": [
          11.1240667,
          46.0707778
        ]
      },
      "properties": {
        "number": "050930",
        "name": "AL VO' RISTORANTE",
        "address": "V.LO VO'",
        "city": "TRENTO",
        "postalCode": "38122",
        "province": "TN",
        "region": "TN",
        "fraction": "TRENTO",
        "type": "RI",
        "closingDay": "",
        "vatNumber": "",
        "supplierName": "",
        "code": "0"
      }
    },
    {
      "type": "Feature",
      "geometry": {
        "type": "Point",
        "coordinates": [
          11.1213284,
          46.0679474
        ]
      },
      "properties": {
        "number": "816088",
        "name": "BAR AQUILA D'ORO",
        "address": "V. RODOLFO BELENZANI",
        "city": "TRENTO",
        "postalCode": "38122",
        "province": "TN",
        "region": "TN",
        "fraction": "TRENTO",
        "type": "TC",
        "closingDay": "",
        "vatNumber": "",
        "supplierName": "",
        "code": "0"
      }
    },
    {
      "type": "Feature",
      "geometry": {
        "type": "Point",
        "coordinates": [
          11.1255769,
          46.0711097
        ]
      },
      "properties": {
        "number": "752900",
        "name": "RISTORANTE ALLA MOSTRA",
        "address": "P.ZZA MOSTRA",
        "city": "TRENTO",
        "postalCode": "38122",
        "province": "TN",
        "region": "TN",
        "fraction": "TRENTO",
        "type": "RP",
        "closingDay": "",
        "vatNumber": "",
        "supplierName": "",
        "code": "0"
      }
    },
    {
      "type": "Feature",
      "geometry": {
        "type": "Point",
        "coordinates": [
          11.121742,
          46.068873
        ]
      },
      "properties": {
        "number": "742046",
        "name": "CHISTE RISTORANTE PIZZERIA",
        "address": "V. ORNE",
        "city": "TRENTO",
        "postalCode": "38122",
        "province": "TN",
        "region": "TN",
        "fraction": "TRENTO",
        "type": "RP",
        "closingDay": "",
        "vatNumber": "",
        "supplierName": "",
        "code": "0"
      }
    },
    {
      "type": "Feature",
      "geometry": {
        "type": "Point",
        "coordinates": [
          11.1210877,
          46.065805
        ]
      },
      "properties": {
        "number": "778850",
        "name": "PASTIFICIO CHICCO DI GRANO",
        "address": "V. SENATORE CARLO ESTERLE",
        "city": "TRENTO",
        "postalCode": "38122",
        "province": "TN",
        "region": "TN",
        "fraction": "TRENTO",
        "type": "GA",
        "closingDay": "",
        "vatNumber": "",
        "supplierName": "",
        "code": "1"
      }
    },
    {
      "type": "Feature",
      "geometry": {
        "type": "Point",
        "coordinates": [
          11.1231917,
          46.0704378
        ]
      },
      "properties": {
        "number": "738924",
        "name": "ANTICO POZZO RISTORANTE",
        "address": "V.LO SAT",
        "city": "TRENTO",
        "postalCode": "38122",
        "province": "TN",
        "region": "TN",
        "fraction": "TRENTO",
        "type": "RI",
        "closingDay": "",
        "vatNumber": "",
        "supplierName": "",
        "code": "0"
      }
    },
    {
      "type": "Feature",
      "geometry": {
        "type": "Point",
        "coordinates": [
          11.121554,
          46.068678
        ]
      },
      "properties": {
        "number": "815997",
        "name": "SOSI A TRENTO DAL 1923",
        "address": "P.ZZA ALESSANDRO VITTORIA",
        "city": "TRENTO",
        "postalCode": "38122",
        "province": "TN",
        "region": "TN",
        "fraction": "TRENTO",
        "type": "GA",
        "closingDay": "",
        "vatNumber": "",
        "supplierName": "",
        "code": "17"
      }
    },
    {
      "type": "Feature",
      "geometry": {
        "type": "Point",
        "coordinates": [
          11.1237862,
          46.0620227
        ]
      },
      "properties": {
        "number": "125314",
        "name": "SOSI A TRENTO DAL 1923",
        "address": "C.SO TRE NOVEMBRE",
        "city": "TRENTO",
        "postalCode": "38122",
        "province": "TN",
        "region": "TN",
        "fraction": "TRENTO",
        "type": "GS",
        "closingDay": "",
        "vatNumber": "",
        "supplierName": "",
        "code": "6"
      }
    },
    {
      "type": "Feature",
      "geometry": {
        "type": "Point",
        "coordinates": [
          11.1238037,
          46.0619975
        ]
      },
      "properties": {
        "number": "806305",
        "name": "CAFFE' AL CORSO BAR",
        "address": "C.SO TRE NOVEMBRE",
        "city": "TRENTO",
        "postalCode": "38122",
        "province": "TN",
        "region": "TN",
        "fraction": "TRENTO",
        "type": "TC",
        "closingDay": "",
        "vatNumber": "",
        "supplierName": "",
        "code": "0"
      }
    },
    {
      "type": "Feature",
      "geometry": {
        "type": "Point",
        "coordinates": [
          11.1212554,
          46.0645451
        ]
      },
      "properties": {
        "number": "114638",
        "name": "SOSI A TRENTO DAL 1923",
        "address": "V. TRAVAI",
        "city": "TRENTO",
        "postalCode": "38122",
        "province": "TN",
        "region": "TN",
        "fraction": "TRENTO",
        "type": "TC",
        "closingDay": "",
        "vatNumber": "",
        "supplierName": "",
        "code": "2"
      }
    },
    {
      "type": "Feature",
      "geometry": {
        "type": "Point",
        "coordinates": [
          11.1209941,
          46.0674932
        ]
      },
      "properties": {
        "number": "643050",
        "name": "CAFFE' TRIDENTE",
        "address": "P.ZZA DUOMO",
        "city": "TRENTO",
        "postalCode": "38122",
        "province": "TN",
        "region": "TN",
        "fraction": "TRENTO",
        "type": "TF",
        "closingDay": "",
        "vatNumber": "",
        "supplierName": "",
        "code": "1"
      }
    },
    {
      "type": "Feature",
      "geometry": {
        "type": "Point",
        "coordinates": [
          11.1221545,
          46.06979
        ]
      },
      "properties": {
        "number": "778916",
        "name": "FORNO URBANO",
        "address": "V. GIANNANTONIO MANCI",
        "city": "TRENTO",
        "postalCode": "38122",
        "province": "TN",
        "region": "TN",
        "fraction": "TRENTO",
        "type": "GA",
        "closingDay": "",
        "vatNumber": "",
        "supplierName": "",
        "code": "0"
      }
    },
    {
      "type": "Feature",
      "geometry": {
        "type": "Point",
        "coordinates": [
          11.1236947,
          46.0709452
        ]
      },
      "properties": {
        "number": "669154",
        "name": "ILARY'S CAFE' BAR",
        "address": "V.LO ADIGE",
        "city": "TRENTO",
        "postalCode": "38122",
        "province": "TN",
        "region": "TN",
        "fraction": "TRENTO",
        "type": "TF",
        "closingDay": "",
        "vatNumber": "",
        "supplierName": "",
        "code": "1"
      }
    },
    {
      "type": "Feature",
      "geometry": {
        "type": "Point",
        "coordinates": [
          11.1214055,
          46.0688542
        ]
      },
      "properties": {
        "number": "715727",
        "name": "CASA DEL CIOCCOLATO PASTICCERIA",
        "address": "V. RODOLFO BELENZANI",
        "city": "TRENTO",
        "postalCode": "38122",
        "province": "TN",
        "region": "TN",
        "fraction": "TRENTO",
        "type": "TF",
        "closingDay": "",
        "vatNumber": "",
        "supplierName": "",
        "code": "0"
      }
    },
    {
      "type": "Feature",
      "geometry": {
        "type": "Point",
        "coordinates": [
          11.1210643,
          46.0646478
        ]
      },
      "properties": {
        "number": "821380",
        "name": "GATIZOLE CAT CAFE",
        "address": "V. TRAVAI",
        "city": "TRENTO",
        "postalCode": "38122",
        "province": "TN",
        "region": "TN",
        "fraction": "TRENTO",
        "type": "TF",
        "closingDay": "",
        "vatNumber": "",
        "supplierName": "",
        "code": "0"
      }
    },
    {
      "type": "Feature",
      "geometry": {
        "type": "Point",
        "coordinates": [
          11.1246218,
          46.0713191
        ]
      },
      "properties": {
        "number": "762534",
        "name": "AL PORTEGHET",
        "address": "PASS. SILVIO DORIGONI",
        "city": "TRENTO",
        "postalCode": "38122",
        "province": "TN",
        "region": "TN",
        "fraction": "TRENTO",
        "type": "TF",
        "closingDay": "",
        "vatNumber": "",
        "supplierName": "",
        "code": "0"
      }
    },
    {
      "type": "Feature",
      "geometry": {
        "type": "Point",
        "coordinates": [
          11.1244371,
          46.0713123
        ]
      },
      "properties": {
        "number": "784415",
        "name": "LATTERIA DEL SOLE",
        "address": "V. TORRE VERDE",
        "city": "TRENTO",
        "postalCode": "38122",
        "province": "TN",
        "region": "TN",
        "fraction": "TRENTO",
        "type": "GA",
        "closingDay": "",
        "vatNumber": "",
        "supplierName": "",
        "code": "5"
      }
    },
    {
      "type": "Feature",
      "geometry": {
        "type": "Point",
        "coordinates": [
          11.1232201,
          46.0708696
        ]
      },
      "properties": {
        "number": "806587",
        "name": "CONAD CITY",
        "address": "V. TORRE VERDE",
        "city": "TRENTO",
        "postalCode": "38122",
        "province": "TN",
        "region": "TN",
        "fraction": "TRENTO",
        "type": "GS",
        "closingDay": "",
        "vatNumber": "",
        "supplierName": "",
        "code": "3"
      }
    },
    {
      "type": "Feature",
      "geometry": {
        "type": "Point",
        "coordinates": [
          11.1303883,
          46.0642128
        ]
      },
      "properties": {
        "number": "816454",
        "name": "ZENIT 2.0",
        "address": "V. FRANCESCO BARBACOVI",
        "city": "TRENTO",
        "postalCode": "38122",
        "province": "TN",
        "region": "TN",
        "fraction": "TRENTO",
        "type": "TC",
        "closingDay": "",
        "vatNumber": "",
        "supplierName": "",
        "code": "0"
      }
    },
    {
      "type": "Feature",
      "geometry": {
        "type": "Point",
        "coordinates": [
          11.1303883,
          46.0642128
        ]
      },
      "properties": {
        "number": "821019",
        "name": "BAR START UP",
        "address": "V. FRANCESCO BARBACOVI",
        "city": "TRENTO",
        "postalCode": "38122",
        "province": "TN",
        "region": "TN",
        "fraction": "TRENTO",
        "type": "TF",
        "closingDay": "",
        "vatNumber": "",
        "supplierName": "",
        "code": "0"
      }
    },
    {
      "type": "Feature",
      "geometry": {
        "type": "Point",
        "coordinates": [
          11.1248655,
          46.0715324
        ]
      },
      "properties": {
        "number": "799538",
        "name": "IL GUSTO",
        "address": "V. SUFFRAGIO",
        "city": "TRENTO",
        "postalCode": "38122",
        "province": "TN",
        "region": "TN",
        "fraction": "TRENTO",
        "type": "RP",
        "closingDay": "",
        "vatNumber": "",
        "supplierName": "",
        "code": "0"
      }
    },
    {
      "type": "Feature",
      "geometry": {
        "type": "Point",
        "coordinates": [
          11.1246589,
          46.0714961
        ]
      },
      "properties": {
        "number": "799555",
        "name": "PARA TODOS",
        "address": "V. SUFFRAGIO",
        "city": "TRENTO",
        "postalCode": "38122",
        "province": "TN",
        "region": "TN",
        "fraction": "TRENTO",
        "type": "TA",
        "closingDay": "",
        "vatNumber": "",
        "supplierName": "",
        "code": "0"
      }
    },
    {
      "type": "Feature",
      "geometry": {
        "type": "Point",
        "coordinates": [
          11.1204996,
          46.0669326
        ]
      },
      "properties": {
        "number": "778821",
        "name": "LIBER CAFE'",
        "address": "P.ZZA DANTE",
        "city": "TRENTO",
        "postalCode": "38122",
        "province": "TN",
        "region": "TN",
        "fraction": "TRENTO",
        "type": "TC",
        "closingDay": "",
        "vatNumber": "",
        "supplierName": "",
        "code": "3"
      }
    },
    {
      "type": "Feature",
      "geometry": {
        "type": "Point",
        "coordinates": [
          11.120725,
          46.068061
        ]
      },
      "properties": {
        "number": "805779",
        "name": "URBAN COFFEE LAB",
        "address": "V. CAMILLO BENSO DI CAVOUR",
        "city": "TRENTO",
        "postalCode": "38122",
        "province": "TN",
        "region": "TN",
        "fraction": "TRENTO",
        "type": "TF",
        "closingDay": "",
        "vatNumber": "",
        "supplierName": "",
        "code": "0"
      }
    },
    {
      "type": "Feature",
      "geometry": {
        "type": "Point",
        "coordinates": [
          11.1206681,
          46.0679559
        ]
      },
      "properties": {
        "number": "778930",
        "name": "IBRIS FOCACCE E PIZZE",
        "address": "V. CAMILLO BENSO DI CAVOUR",
        "city": "TRENTO",
        "postalCode": "38122",
        "province": "TN",
        "region": "TN",
        "fraction": "TRENTO",
        "type": "TA",
        "closingDay": "",
        "vatNumber": "",
        "supplierName": "",
        "code": "0"
      }
    },
    {
      "type": "Feature",
      "geometry": {
        "type": "Point",
        "coordinates": [
          11.1206681,
          46.0679559
        ]
      },
      "properties": {
        "number": "817359",
        "name": "IBRIS PIZZA & DRINK",
        "address": "V. CAMILLO BENSO DI CAVOUR",
        "city": "TRENTO",
        "postalCode": "38122",
        "province": "TN",
        "region": "TN",
        "fraction": "TRENTO",
        "type": "RP",
        "closingDay": "",
        "vatNumber": "",
        "supplierName": "",
        "code": "2"
      }
    },
    {
      "type": "Feature",
      "geometry": {
        "type": "Point",
        "coordinates": [
          11.130656,
          46.0639065
        ]
      },
      "properties": {
        "number": "677272",
        "name": "PIZZA E PIZZA TAKE AWAY",
        "address": "V. SAN BERNARDINO",
        "city": "TRENTO",
        "postalCode": "38122",
        "province": "TN",
        "region": "TN",
        "fraction": "TRENTO",
        "type": "TA",
        "closingDay": "",
        "vatNumber": "",
        "supplierName": "",
        "code": "0"
      }
    },
    {
      "type": "Feature",
      "geometry": {
        "type": "Point",
        "coordinates": [
          11.1211115,
          46.0694398
        ]
      },
      "properties": {
        "number": "820669",
        "name": "PALAZZO BENVENUTI CAFFE'",
        "address": "V. RODOLFO BELENZANI",
        "city": "TRENTO",
        "postalCode": "38122",
        "province": "TN",
        "region": "TN",
        "fraction": "TRENTO",
        "type": "RI",
        "closingDay": "",
        "vatNumber": "",
        "supplierName": "",
        "code": "0"
      }
    },
    {
      "type": "Feature",
      "geometry": {
        "type": "Point",
        "coordinates": [
          11.1249292,
          46.0719141
        ]
      },
      "properties": {
        "number": "799687",
        "name": "MILLI EAT & DRINK",
        "address": "V. SUFFRAGIO",
        "city": "TRENTO",
        "postalCode": "38122",
        "province": "TN",
        "region": "TN",
        "fraction": "TRENTO",
        "type": "TC",
        "closingDay": "",
        "vatNumber": "",
        "supplierName": "",
        "code": "0"
      }
    },
    {
      "type": "Feature",
      "geometry": {
        "type": "Point",
        "coordinates": [
          11.1203558,
          46.0682134
        ]
      },
      "properties": {
        "number": "787319",
        "name": "PIZZA CAVOUR",
        "address": "V. CAMILLO BENSO DI CAVOUR",
        "city": "TRENTO",
        "postalCode": "38122",
        "province": "TN",
        "region": "TN",
        "fraction": "TRENTO",
        "type": "TA",
        "closingDay": "",
        "vatNumber": "",
        "supplierName": "",
        "code": "0"
      }
    },
    {
      "type": "Feature",
      "geometry": {
        "type": "Point",
        "coordinates": [
          11.1244638,
          46.0720066
        ]
      },
      "properties": {
        "number": "756113",
        "name": "RISTORANTE GREEN TOWER",
        "address": "V. TORRE VERDE",
        "city": "TRENTO",
        "postalCode": "38122",
        "province": "TN",
        "region": "TN",
        "fraction": "TRENTO",
        "type": "RI",
        "closingDay": "",
        "vatNumber": "",
        "supplierName": "",
        "code": "0"
      }
    },
    {
      "type": "Feature",
      "geometry": {
        "type": "Point",
        "coordinates": [
          11.1202055,
          46.0684654
        ]
      },
      "properties": {
        "number": "665543",
        "name": "SAN MICHELE PIZZA",
        "address": "V. CAMILLO BENSO DI CAVOUR",
        "city": "TRENTO",
        "postalCode": "38122",
        "province": "TN",
        "region": "TN",
        "fraction": "TRENTO",
        "type": "TA",
        "closingDay": "",
        "vatNumber": "",
        "supplierName": "",
        "code": "0"
      }
    },
    {
      "type": "Feature",
      "geometry": {
        "type": "Point",
        "coordinates": [
          11.1237327,
          46.0607723
        ]
      },
      "properties": {
        "number": "783355",
        "name": "LA PIZZICCHERIA",
        "address": "V. FRATELLI PERINI",
        "city": "TRENTO",
        "postalCode": "38122",
        "province": "TN",
        "region": "TN",
        "fraction": "TRENTO",
        "type": "GA",
        "closingDay": "",
        "vatNumber": "",
        "supplierName": "",
        "code": "0"
      }
    },
    {
      "type": "Feature",
      "geometry": {
        "type": "Point",
        "coordinates": [
          11.131054,
          46.06359
        ]
      },
      "properties": {
        "number": "812742",
        "name": "DOC RISTORANTE PIZZERIA",
        "address": "V. MILANO",
        "city": "TRENTO",
        "postalCode": "38122",
        "province": "TN",
        "region": "TN",
        "fraction": "TRENTO",
        "type": "RP",
        "closingDay": "",
        "vatNumber": "",
        "supplierName": "",
        "code": "1"
      }
    },
    {
      "type": "Feature",
      "geometry": {
        "type": "Point",
        "coordinates": [
          11.1210505,
          46.0701621
        ]
      },
      "properties": {
        "number": "822950",
        "name": "LIBER CAFE'",
        "address": "P.ZZA DANTE",
        "city": "TRENTO",
        "postalCode": "38122",
        "province": "TN",
        "region": "TN",
        "fraction": "TRENTO",
        "type": "RI",
        "closingDay": "",
        "vatNumber": "",
        "supplierName": "",
        "code": "0"
      }
    },
    {
      "type": "Feature",
      "geometry": {
        "type": "Point",
        "coordinates": [
          11.1236203,
          46.060783
        ]
      },
      "properties": {
        "number": "813222",
        "name": "BISTRO' 167",
        "address": "V. FRATELLI PERINI",
        "city": "TRENTO",
        "postalCode": "38122",
        "province": "TN",
        "region": "TN",
        "fraction": "TRENTO",
        "type": "RI",
        "closingDay": "",
        "vatNumber": "",
        "supplierName": "",
        "code": "1"
      }
    },
    {
      "type": "Feature",
      "geometry": {
        "type": "Point",
        "coordinates": [
          11.1315409,
          46.0646453
        ]
      },
      "properties": {
        "number": "781350",
        "name": "MINI POLI",
        "address": "V. GIOVANNELLI",
        "city": "TRENTO",
        "postalCode": "38122",
        "province": "TN",
        "region": "TN",
        "fraction": "TRENTO",
        "type": "GS",
        "closingDay": "",
        "vatNumber": "",
        "supplierName": "",
        "code": "17"
      }
    },
    {
      "type": "Feature",
      "geometry": {
        "type": "Point",
        "coordinates": [
          11.1199898,
          46.068407
        ]
      },
      "properties": {
        "number": "809408",
        "name": "GALLO BLUE BAR",
        "address": "P.ZZA SANTA MARIA MAGGIORE",
        "city": "TRENTO",
        "postalCode": "38122",
        "province": "TN",
        "region": "TN",
        "fraction": "TRENTO",
        "type": "TF",
        "closingDay": "",
        "vatNumber": "",
        "supplierName": "",
        "code": "0"
      }
    },
    {
      "type": "Feature",
      "geometry": {
        "type": "Point",
        "coordinates": [
          11.1196501,
          46.0658978
        ]
      },
      "properties": {
        "number": "816233",
        "name": "PERBENE O QUASI",
        "address": "V. GIOVANNI PRATI",
        "city": "TRENTO",
        "postalCode": "38122",
        "province": "TN",
        "region": "TN",
        "fraction": "TRENTO",
        "type": "GA",
        "closingDay": "",
        "vatNumber": "",
        "supplierName": "",
        "code": "0"
      }
    },
    {
      "type": "Feature",
      "geometry": {
        "type": "Point",
        "coordinates": [
          11.1198616,
          46.0683468
        ]
      },
      "properties": {
        "number": "152236",
        "name": "ROSA D'ORO RISTORANTE PIZZERIA",
        "address": "P.ZZA SANTA MARIA MAGGIORE",
        "city": "TRENTO",
        "postalCode": "38122",
        "province": "TN",
        "region": "TN",
        "fraction": "TRENTO",
        "type": "RP",
        "closingDay": "",
        "vatNumber": "",
        "supplierName": "",
        "code": "0"
      }
    },
    {
      "type": "Feature",
      "geometry": {
        "type": "Point",
        "coordinates": [
          11.1233819,
          46.0722315
        ]
      },
      "properties": {
        "number": "819116",
        "name": "EPICO CAFFE'",
        "address": "V. FRANCESCO PETRARCA",
        "city": "TRENTO",
        "postalCode": "38122",
        "province": "TN",
        "region": "TN",
        "fraction": "TRENTO",
        "type": "TF",
        "closingDay": "",
        "vatNumber": "",
        "supplierName": "",
        "code": "0"
      }
    },
    {
      "type": "Feature",
      "geometry": {
        "type": "Point",
        "coordinates": [
          11.1309852,
          46.0627965
        ]
      },
      "properties": {
        "number": "820625",
        "name": "L'ANGOLO DEL CAFFE'",
        "address": "V. BEZZECCA",
        "city": "TRENTO",
        "postalCode": "38122",
        "province": "TN",
        "region": "TN",
        "fraction": "TRENTO",
        "type": "TC",
        "closingDay": "",
        "vatNumber": "",
        "supplierName": "",
        "code": "0"
      }
    },
    {
      "type": "Feature",
      "geometry": {
        "type": "Point",
        "coordinates": [
          11.1201958,
          46.0695256
        ]
      },
      "properties": {
        "number": "822493",
        "name": "CAPRIZZA",
        "address": "V. ROMA",
        "city": "TRENTO",
        "postalCode": "38122",
        "province": "TN",
        "region": "TN",
        "fraction": "TRENTO",
        "type": "RP",
        "closingDay": "",
        "vatNumber": "",
        "supplierName": "",
        "code": "0"
      }
    },
    {
      "type": "Feature",
      "geometry": {
        "type": "Point",
        "coordinates": [
          11.1200594,
          46.0693065
        ]
      },
      "properties": {
        "number": "820581",
        "name": "BOTTEGA DEL CAFFE' DERSUT",
        "address": "V. ORFANE",
        "city": "TRENTO",
        "postalCode": "38122",
        "province": "TN",
        "region": "TN",
        "fraction": "TRENTO",
        "type": "TF",
        "closingDay": "",
        "vatNumber": "",
        "supplierName": "",
        "code": "0"
      }
    },
    {
      "type": "Feature",
      "geometry": {
        "type": "Point",
        "coordinates": [
          11.125077,
          46.0728595
        ]
      },
      "properties": {
        "number": "820323",
        "name": "PIZZA GRANDA",
        "address": "V. ALESSANDRO MANZONI",
        "city": "TRENTO",
        "postalCode": "38122",
        "province": "TN",
        "region": "TN",
        "fraction": "TRENTO",
        "type": "TA",
        "closingDay": "",
        "vatNumber": "",
        "supplierName": "",
        "code": "0"
      }
    },
    {
      "type": "Feature",
      "geometry": {
        "type": "Point",
        "coordinates": [
          11.1212391,
          46.0712659
        ]
      },
      "properties": {
        "number": "120318",
        "name": "BUFFET STAZIONE DI TRENTO",
        "address": "P.ZZA DANTE",
        "city": "TRENTO",
        "postalCode": "38122",
        "province": "TN",
        "region": "TN",
        "fraction": "TRENTO",
        "type": "TC",
        "closingDay": "",
        "vatNumber": "",
        "supplierName": "",
        "code": "10"
      }
    },
    {
      "type": "Feature",
      "geometry": {
        "type": "Point",
        "coordinates": [
          11.1192569,
          46.0680198
        ]
      },
      "properties": {
        "number": "900020",
        "name": "IL SIMPOSIO BAR RISTORANTE",
        "address": "V. ANTONIO ROSMINI",
        "city": "TRENTO",
        "postalCode": "38122",
        "province": "TN",
        "region": "TN",
        "fraction": "TRENTO",
        "type": "RI",
        "closingDay": "",
        "vatNumber": "",
        "supplierName": "",
        "code": "0"
      }
    },
    {
      "type": "Feature",
      "geometry": {
        "type": "Point",
        "coordinates": [
          11.1243469,
          46.0733934
        ]
      },
      "properties": {
        "number": "009860",
        "name": "BOUGANVILLE RISTORANTE PIZZERIA",
        "address": "V. FRANCESCO PETRARCA",
        "city": "TRENTO",
        "postalCode": "38122",
        "province": "TN",
        "region": "TN",
        "fraction": "TRENTO",
        "type": "RP",
        "closingDay": "",
        "vatNumber": "",
        "supplierName": "",
        "code": "0"
      }
    },
    {
      "type": "Feature",
      "geometry": {
        "type": "Point",
        "coordinates": [
          11.1188605,
          46.0684317
        ]
      },
      "properties": {
        "number": "821513",
        "name": "TASTIKO",
        "address": "P.ZZA SANTA MARIA MAGGIORE",
        "city": "TRENTO",
        "postalCode": "38122",
        "province": "TN",
        "region": "TN",
        "fraction": "TRENTO",
        "type": "RI",
        "closingDay": "",
        "vatNumber": "",
        "supplierName": "",
        "code": "0"
      }
    },
    {
      "type": "Feature",
      "geometry": {
        "type": "Point",
        "coordinates": [
          11.1224486,
          46.0728569
        ]
      },
      "properties": {
        "number": "812208",
        "name": "BAR BUONCONSIGLIO",
        "address": "V. GIAN DOMENICO ROMAGNOSI",
        "city": "TRENTO",
        "postalCode": "38122",
        "province": "TN",
        "region": "TN",
        "fraction": "TRENTO",
        "type": "TF",
        "closingDay": "",
        "vatNumber": "",
        "supplierName": "",
        "code": "0"
      }
    },
    {
      "type": "Feature",
      "geometry": {
        "type": "Point",
        "coordinates": [
          11.1204262,
          46.0614733
        ]
      },
      "properties": {
        "number": "644734",
        "name": "MENSA INTERNA COLLEGIO C. ENDRICI",
        "address": "V. MONS CELESTINO ENDRICI",
        "city": "TRENTO",
        "postalCode": "38122",
        "province": "TN",
        "region": "TN",
        "fraction": "TRENTO",
        "type": "MI",
        "closingDay": "",
        "vatNumber": "",
        "supplierName": "",
        "code": "39"
      }
    },
    {
      "type": "Feature",
      "geometry": {
        "type": "Point",
        "coordinates": [
          11.1188027,
          46.0687523
        ]
      },
      "properties": {
        "number": "821072",
        "name": "TUDAY CONAD",
        "address": "P.ZZA SANTA MARIA MAGGIORE",
        "city": "TRENTO",
        "postalCode": "38122",
        "province": "TN",
        "region": "TN",
        "fraction": "TRENTO",
        "type": "GS",
        "closingDay": "",
        "vatNumber": "",
        "supplierName": "",
        "code": "62"
      }
    },
    {
      "type": "Feature",
      "geometry": {
        "type": "Point",
        "coordinates": [
          11.1250571,
          46.0590212
        ]
      },
      "properties": {
        "number": "817474",
        "name": "BAR VENETO",
        "address": "V. VENETO",
        "city": "TRENTO",
        "postalCode": "38122",
        "province": "TN",
        "region": "TN",
        "fraction": "TRENTO",
        "type": "TC",
        "closingDay": "",
        "vatNumber": "",
        "supplierName": "",
        "code": "0"
      }
    },
    {
      "type": "Feature",
      "geometry": {
        "type": "Point",
        "coordinates": [
          11.1250571,
          46.0590212
        ]
      },
      "properties": {
        "number": "809389",
        "name": "ELISABETTA BAR",
        "address": "V. VITTORIO VENETO",
        "city": "TRENTO",
        "postalCode": "38122",
        "province": "TN",
        "region": "TN",
        "fraction": "TRENTO",
        "type": "TF",
        "closingDay": "",
        "vatNumber": "",
        "supplierName": "",
        "code": "1"
      }
    },
    {
      "type": "Feature",
      "geometry": {
        "type": "Point",
        "coordinates": [
          11.1187282,
          46.069471
        ]
      },
      "properties": {
        "number": "663886",
        "name": "L'ANGOLO TONDO TAKE AWAY",
        "address": "P.ZZA PORTELLA",
        "city": "TRENTO",
        "postalCode": "38122",
        "province": "TN",
        "region": "TN",
        "fraction": "TRENTO",
        "type": "TA",
        "closingDay": "",
        "vatNumber": "",
        "supplierName": "",
        "code": "0"
      }
    },
    {
      "type": "Feature",
      "geometry": {
        "type": "Point",
        "coordinates": [
          11.118819,
          46.0700972
        ]
      },
      "properties": {
        "number": "678719",
        "name": "EUROSPESA MARKET",
        "address": "V. TORRE VANGA",
        "city": "TRENTO",
        "postalCode": "38122",
        "province": "TN",
        "region": "TN",
        "fraction": "TRENTO",
        "type": "GS",
        "closingDay": "",
        "vatNumber": "",
        "supplierName": "",
        "code": "0"
      }
    },
    {
      "type": "Feature",
      "geometry": {
        "type": "Point",
        "coordinates": [
          11.1177377,
          46.0666412
        ]
      },
      "properties": {
        "number": "803030",
        "name": "FLOWER BURGER",
        "address": "V. GIUSEPPE VERDI",
        "city": "TRENTO",
        "postalCode": "38122",
        "province": "TN",
        "region": "TN",
        "fraction": "TRENTO",
        "type": "FF",
        "closingDay": "",
        "vatNumber": "",
        "supplierName": "",
        "code": "0"
      }
    },
    {
      "type": "Feature",
      "geometry": {
        "type": "Point",
        "coordinates": [
          11.117758,
          46.0674769
        ]
      },
      "properties": {
        "number": "738607",
        "name": "SOSI MAGNA LAUDE",
        "address": "V. D G BATTISTA ZANELLA",
        "city": "TRENTO",
        "postalCode": "38122",
        "province": "TN",
        "region": "TN",
        "fraction": "TRENTO",
        "type": "TC",
        "closingDay": "",
        "vatNumber": "",
        "supplierName": "",
        "code": "11"
      }
    },
    {
      "type": "Feature",
      "geometry": {
        "type": "Point",
        "coordinates": [
          11.1177132,
          46.0673155
        ]
      },
      "properties": {
        "number": "793101",
        "name": "PAPPARE' TRENTO",
        "address": "V. D G BATTISTA ZANELLA",
        "city": "TRENTO",
        "postalCode": "38122",
        "province": "TN",
        "region": "TN",
        "fraction": "TRENTO",
        "type": "TC",
        "closingDay": "",
        "vatNumber": "",
        "supplierName": "",
        "code": "4"
      }
    },
    {
      "type": "Feature",
      "geometry": {
        "type": "Point",
        "coordinates": [
          11.1204844,
          46.0602032
        ]
      },
      "properties": {
        "number": "816003",
        "name": "AL RITROVO",
        "address": "V. FRATELLI PERINI",
        "city": "TRENTO",
        "postalCode": "38122",
        "province": "TN",
        "region": "TN",
        "fraction": "TRENTO",
        "type": "TC",
        "closingDay": "",
        "vatNumber": "",
        "supplierName": "",
        "code": "0"
      }
    },
    {
      "type": "Feature",
      "geometry": {
        "type": "Point",
        "coordinates": [
          11.1182475,
          46.069605
        ]
      },
      "properties": {
        "number": "715764",
        "name": "FRIENDS PIZZERIA & KEBAB",
        "address": "V. PREPOSITURA",
        "city": "TRENTO",
        "postalCode": "38122",
        "province": "TN",
        "region": "TN",
        "fraction": "TRENTO",
        "type": "TA",
        "closingDay": "",
        "vatNumber": "",
        "supplierName": "",
        "code": "0"
      }
    },
    {
      "type": "Feature",
      "geometry": {
        "type": "Point",
        "coordinates": [
          11.1175726,
          46.0674529
        ]
      },
      "properties": {
        "number": "643782",
        "name": "ATENEO CAFFE' BAR",
        "address": "V. D G BATTISTA ZANELLA",
        "city": "TRENTO",
        "postalCode": "38122",
        "province": "TN",
        "region": "TN",
        "fraction": "TRENTO",
        "type": "TF",
        "closingDay": "",
        "vatNumber": "",
        "supplierName": "",
        "code": "0"
      }
    },
    {
      "type": "Feature",
      "geometry": {
        "type": "Point",
        "coordinates": [
          11.1252572,
          46.0748373
        ]
      },
      "properties": {
        "number": "752302",
        "name": "DESPAR MARKET",
        "address": "L.GO NAZARIO SAURO",
        "city": "TRENTO",
        "postalCode": "38121",
        "province": "TN",
        "region": "TN",
        "fraction": "TRENTO",
        "type": "GS",
        "closingDay": "",
        "vatNumber": "",
        "supplierName": "",
        "code": "0"
      }
    },
    {
      "type": "Feature",
      "geometry": {
        "type": "Point",
        "coordinates": [
          11.1208744,
          46.0732965
        ]
      },
      "properties": {
        "number": "153283",
        "name": "DOGANA BAR",
        "address": "V. GIAN DOMENICO ROMAGNOSI",
        "city": "TRENTO",
        "postalCode": "38122",
        "province": "TN",
        "region": "TN",
        "fraction": "TRENTO",
        "type": "TF",
        "closingDay": "",
        "vatNumber": "",
        "supplierName": "",
        "code": "0"
      }
    },
    {
      "type": "Feature",
      "geometry": {
        "type": "Point",
        "coordinates": [
          11.124598,
          46.0748528
        ]
      },
      "properties": {
        "number": "122316",
        "name": "LA PERLA D'ORIENTE GASTRONOMIA",
        "address": "L.GO NAZARIO SAURO",
        "city": "TRENTO",
        "postalCode": "38121",
        "province": "TN",
        "region": "TN",
        "fraction": "TRENTO",
        "type": "GA",
        "closingDay": "",
        "vatNumber": "",
        "supplierName": "",
        "code": "0"
      }
    },
    {
      "type": "Feature",
      "geometry": {
        "type": "Point",
        "coordinates": [
          11.1228446,
          46.0744696
        ]
      },
      "properties": {
        "number": "691354",
        "name": "EDEN CAFFE'",
        "address": "V. JACOPO ACONCIO",
        "city": "TRENTO",
        "postalCode": "38122",
        "province": "TN",
        "region": "TN",
        "fraction": "TRENTO",
        "type": "TC",
        "closingDay": "",
        "vatNumber": "",
        "supplierName": "",
        "code": "2"
      }
    },
    {
      "type": "Feature",
      "geometry": {
        "type": "Point",
        "coordinates": [
          11.1276815,
          46.0578371
        ]
      },
      "properties": {
        "number": "809091",
        "name": "FOLLIE DEL SUD",
        "address": "V.LE VERONA",
        "city": "TRENTO",
        "postalCode": "38123",
        "province": "TN",
        "region": "TN",
        "fraction": "TRENTO",
        "type": "FF",
        "closingDay": "",
        "vatNumber": "",
        "supplierName": "",
        "code": "0"
      }
    },
    {
      "type": "Feature",
      "geometry": {
        "type": "Point",
        "coordinates": [
          11.1248919,
          46.0752249
        ]
      },
      "properties": {
        "number": "819114",
        "name": "ZUSHI JAPANESE RESTAURANT",
        "address": "V. BRENNERO",
        "city": "TRENTO",
        "postalCode": "38122",
        "province": "TN",
        "region": "TN",
        "fraction": "TRENTO",
        "type": "RI",
        "closingDay": "",
        "vatNumber": "",
        "supplierName": "",
        "code": "0"
      }
    },
    {
      "type": "Feature",
      "geometry": {
        "type": "Point",
        "coordinates": [
          11.1222801,
          46.058289
        ]
      },
      "properties": {
        "number": "784270",
        "name": "MALY BAR",
        "address": "V. VITTORIO VENETO",
        "city": "TRENTO",
        "postalCode": "38122",
        "province": "TN",
        "region": "TN",
        "fraction": "TRENTO",
        "type": "TC",
        "closingDay": "",
        "vatNumber": "",
        "supplierName": "",
        "code": "0"
      }
    },
    {
      "type": "Feature",
      "geometry": {
        "type": "Point",
        "coordinates": [
          11.1197818,
          46.0598519
        ]
      },
      "properties": {
        "number": "784260",
        "name": "MISTER PIZZA",
        "address": "V. FRATELLI PERINI",
        "city": "TRENTO",
        "postalCode": "38122",
        "province": "TN",
        "region": "TN",
        "fraction": "TRENTO",
        "type": "RP",
        "closingDay": "",
        "vatNumber": "",
        "supplierName": "",
        "code": "0"
      }
    },
    {
      "type": "Feature",
      "geometry": {
        "type": "Point",
        "coordinates": [
          11.1204183,
          46.0737471
        ]
      },
      "properties": {
        "number": "672708",
        "name": "BAR STAZIONE TRENTO MALE'",
        "address": "V. DOGANA",
        "city": "TRENTO",
        "postalCode": "38122",
        "province": "TN",
        "region": "TN",
        "fraction": "TRENTO",
        "type": "TF",
        "closingDay": "",
        "vatNumber": "",
        "supplierName": "",
        "code": "0"
      }
    },
    {
      "type": "Feature",
      "geometry": {
        "type": "Point",
        "coordinates": [
          11.1166873,
          46.0665284
        ]
      },
      "properties": {
        "number": "127765",
        "name": "DALPRA' GASTR.",
        "address": "V. GIUSEPPE VERDI",
        "city": "TRENTO",
        "postalCode": "38122",
        "province": "TN",
        "region": "TN",
        "fraction": "TRENTO",
        "type": "GA",
        "closingDay": "",
        "vatNumber": "",
        "supplierName": "",
        "code": "1"
      }
    },
    {
      "type": "Feature",
      "geometry": {
        "type": "Point",
        "coordinates": [
          11.1220361,
          46.074779
        ]
      },
      "properties": {
        "number": "668650",
        "name": "CAFFE' EURO BAR",
        "address": "V. GIOVANNI SEGANTINI",
        "city": "TRENTO",
        "postalCode": "38122",
        "province": "TN",
        "region": "TN",
        "fraction": "TRENTO",
        "type": "TC",
        "closingDay": "",
        "vatNumber": "",
        "supplierName": "",
        "code": "1"
      }
    },
    {
      "type": "Feature",
      "geometry": {
        "type": "Point",
        "coordinates": [
          11.1280874,
          46.0569401
        ]
      },
      "properties": {
        "number": "808662",
        "name": "CHINA GUSTO",
        "address": "V.LE VERONA",
        "city": "TRENTO",
        "postalCode": "38123",
        "province": "TN",
        "region": "TN",
        "fraction": "TRENTO",
        "type": "RI",
        "closingDay": "",
        "vatNumber": "",
        "supplierName": "",
        "code": "0"
      }
    },
    {
      "type": "Feature",
      "geometry": {
        "type": "Point",
        "coordinates": [
          11.1191494,
          46.0589895
        ]
      },
      "properties": {
        "number": "809386",
        "name": "RED APPLE - COFFEE BAR DANY",
        "address": "V. GIUSEPPE GIUSTI",
        "city": "TRENTO",
        "postalCode": "38122",
        "province": "TN",
        "region": "TN",
        "fraction": "TRENTO",
        "type": "TF",
        "closingDay": "",
        "vatNumber": "",
        "supplierName": "",
        "code": "2"
      }
    },
    {
      "type": "Feature",
      "geometry": {
        "type": "Point",
        "coordinates": [
          11.1191494,
          46.0589895
        ]
      },
      "properties": {
        "number": "809385",
        "name": "BAR PAUSA KAFFE'",
        "address": "V. GIUSEPPE GIUSTI",
        "city": "TRENTO",
        "postalCode": "38122",
        "province": "TN",
        "region": "TN",
        "fraction": "TRENTO",
        "type": "TF",
        "closingDay": "",
        "vatNumber": "",
        "supplierName": "",
        "code": "1"
      }
    },
    {
      "type": "Feature",
      "geometry": {
        "type": "Point",
        "coordinates": [
          11.1168735,
          46.0710156
        ]
      },
      "properties": {
        "number": "816963",
        "name": "DOLOMITI RISTORANTE BAR",
        "address": "C.SO MICHELANGELO BUONARROTI",
        "city": "TRENTO",
        "postalCode": "38122",
        "province": "TN",
        "region": "TN",
        "fraction": "TRENTO",
        "type": "RI",
        "closingDay": "",
        "vatNumber": "",
        "supplierName": "",
        "code": "2"
      }
    },
    {
      "type": "Feature",
      "geometry": {
        "type": "Point",
        "coordinates": [
          11.1173711,
          46.0720128
        ]
      },
      "properties": {
        "number": "695683",
        "name": "WELCOME INDIA RIST. PIZZ.",
        "address": "C.SO MICHELANGELO BUONARROTI",
        "city": "TRENTO",
        "postalCode": "38122",
        "province": "TN",
        "region": "TN",
        "fraction": "TRENTO",
        "type": "RP",
        "closingDay": "",
        "vatNumber": "",
        "supplierName": "",
        "code": "1"
      }
    },
    {
      "type": "Feature",
      "geometry": {
        "type": "Point",
        "coordinates": [
          11.1239535,
          46.0763894
        ]
      },
      "properties": {
        "number": "823042",
        "name": "HABESHA BAR RISTORANTE TRENTO",
        "address": "V. BRENNERO",
        "city": "TRENTO",
        "postalCode": "38122",
        "province": "TN",
        "region": "TN",
        "fraction": "TRENTO",
        "type": "TC",
        "closingDay": "",
        "vatNumber": "",
        "supplierName": "",
        "code": "1"
      }
    },
    {
      "type": "Feature",
      "geometry": {
        "type": "Point",
        "coordinates": [
          11.1239535,
          46.0763894
        ]
      },
      "properties": {
        "number": "627554",
        "name": "AL-ATHIR KEBAB TAKE AWAY",
        "address": "V. BRENNERO",
        "city": "TRENTO",
        "postalCode": "38122",
        "province": "TN",
        "region": "TN",
        "fraction": "TRENTO",
        "type": "TA",
        "closingDay": "",
        "vatNumber": "",
        "supplierName": "",
        "code": "0"
      }
    },
    {
      "type": "Feature",
      "geometry": {
        "type": "Point",
        "coordinates": [
          11.1239535,
          46.0763894
        ]
      },
      "properties": {
        "number": "823873",
        "name": "AL-ATHIR",
        "address": "V. BRENNERO",
        "city": "TRENTO",
        "postalCode": "38122",
        "province": "TN",
        "region": "TN",
        "fraction": "TRENTO",
        "type": "FF",
        "closingDay": "",
        "vatNumber": "",
        "supplierName": "",
        "code": "0"
      }
    },
    {
      "type": "Feature",
      "geometry": {
        "type": "Point",
        "coordinates": [
          11.1187306,
          46.0742596
        ]
      },
      "properties": {
        "number": "812388",
        "name": "L'ANGOLO DEL PANE",
        "address": "C.SO MICHELANGELO BUONARROTI",
        "city": "TRENTO",
        "postalCode": "38122",
        "province": "TN",
        "region": "TN",
        "fraction": "TRENTO",
        "type": "TF",
        "closingDay": "",
        "vatNumber": "",
        "supplierName": "",
        "code": "0"
      }
    },
    {
      "type": "Feature",
      "geometry": {
        "type": "Point",
        "coordinates": [
          11.1325759,
          46.0580052
        ]
      },
      "properties": {
        "number": "738477",
        "name": "BLU BAR",
        "address": "L.GO MEDAGLIE D' ORO",
        "city": "TRENTO",
        "postalCode": "38122",
        "province": "TN",
        "region": "TN",
        "fraction": "TRENTO",
        "type": "TF",
        "closingDay": "",
        "vatNumber": "",
        "supplierName": "",
        "code": "0"
      }
    },
    {
      "type": "Feature",
      "geometry": {
        "type": "Point",
        "coordinates": [
          11.1326627,
          46.058027
        ]
      },
      "properties": {
        "number": "781348",
        "name": "POLI SUPERMECATI",
        "address": "L.GO MEDAGLIE D'ORO",
        "city": "TRENTO",
        "postalCode": "38122",
        "province": "TN",
        "region": "TN",
        "fraction": "TRENTO",
        "type": "GS",
        "closingDay": "",
        "vatNumber": "",
        "supplierName": "",
        "code": "15"
      }
    },
    {
      "type": "Feature",
      "geometry": {
        "type": "Point",
        "coordinates": [
          11.1324235,
          46.0577957
        ]
      },
      "properties": {
        "number": "671270",
        "name": "MEDAGLIE D'ORO BAR",
        "address": "L.GO MEDAGLIE D' ORO",
        "city": "TRENTO",
        "postalCode": "38122",
        "province": "TN",
        "region": "TN",
        "fraction": "TRENTO",
        "type": "TF",
        "closingDay": "",
        "vatNumber": "",
        "supplierName": "",
        "code": "0"
      }
    },
    {
      "type": "Feature",
      "geometry": {
        "type": "Point",
        "coordinates": [
          11.121701,
          46.056232
        ]
      },
      "properties": {
        "number": "617510",
        "name": "CONAD CITY",
        "address": "V. VILLA",
        "city": "TRENTO",
        "postalCode": "38123",
        "province": "TN",
        "region": "TN",
        "fraction": "TRENTO",
        "type": "GS",
        "closingDay": "",
        "vatNumber": "",
        "supplierName": "",
        "code": "0"
      }
    },
    {
      "type": "Feature",
      "geometry": {
        "type": "Point",
        "coordinates": [
          11.121701,
          46.056232
        ]
      },
      "properties": {
        "number": "820344",
        "name": "CONAD",
        "address": "V. GIACOMO MATTEOTTI",
        "city": "TRENTO",
        "postalCode": "38122",
        "province": "TN",
        "region": "TN",
        "fraction": "TRENTO",
        "type": "GS",
        "closingDay": "",
        "vatNumber": "",
        "supplierName": "",
        "code": "60"
      }
    },
    {
      "type": "Feature",
      "geometry": {
        "type": "Point",
        "coordinates": [
          11.1322692,
          46.0575264
        ]
      },
      "properties": {
        "number": "784295",
        "name": "BAR 27",
        "address": "V. PAOLO ORSI",
        "city": "TRENTO",
        "postalCode": "38122",
        "province": "TN",
        "region": "TN",
        "fraction": "TRENTO",
        "type": "TF",
        "closingDay": "",
        "vatNumber": "",
        "supplierName": "",
        "code": "0"
      }
    },
    {
      "type": "Feature",
      "geometry": {
        "type": "Point",
        "coordinates": [
          11.1212717,
          46.056179
        ]
      },
      "properties": {
        "number": "672645",
        "name": "BLUE ANGEL BAR",
        "address": "V. GIACOMO MATTEOTTI",
        "city": "TRENTO",
        "postalCode": "38122",
        "province": "TN",
        "region": "TN",
        "fraction": "TRENTO",
        "type": "TC",
        "closingDay": "",
        "vatNumber": "",
        "supplierName": "",
        "code": "0"
      }
    },
    {
      "type": "Feature",
      "geometry": {
        "type": "Point",
        "coordinates": [
          11.1152568,
          46.0621759
        ]
      },
      "properties": {
        "number": "771058",
        "name": "SHI'S",
        "address": "V.LE ADRIANO OLIVETTI",
        "city": "TRENTO",
        "postalCode": "38122",
        "province": "TN",
        "region": "TN",
        "fraction": "TRENTO",
        "type": "RI",
        "closingDay": "",
        "vatNumber": "",
        "supplierName": "",
        "code": "125"
      }
    },
    {
      "type": "Feature",
      "geometry": {
        "type": "Point",
        "coordinates": [
          11.1208798,
          46.056129
        ]
      },
      "properties": {
        "number": "816717",
        "name": "TWIST PIZZA AND MORE",
        "address": "V. GIACOMO MATTEOTTI",
        "city": "TRENTO",
        "postalCode": "38122",
        "province": "TN",
        "region": "TN",
        "fraction": "TRENTO",
        "type": "FF",
        "closingDay": "",
        "vatNumber": "",
        "supplierName": "",
        "code": "0"
      }
    },
    {
      "type": "Feature",
      "geometry": {
        "type": "Point",
        "coordinates": [
          11.1190994,
          46.0756657
        ]
      },
      "properties": {
        "number": "820281",
        "name": "DESPAR",
        "address": "C.SO MICHELANGELO BUONARROTI",
        "city": "TRENTO",
        "postalCode": "38122",
        "province": "TN",
        "region": "TN",
        "fraction": "TRENTO",
        "type": "GS",
        "closingDay": "",
        "vatNumber": "",
        "supplierName": "",
        "code": "0"
      }
    },
    {
      "type": "Feature",
      "geometry": {
        "type": "Point",
        "coordinates": [
          11.1188351,
          46.0573313
        ]
      },
      "properties": {
        "number": "703946",
        "name": "ORVEA SUPERMERCATI",
        "address": "V. SAN PIO X",
        "city": "TRENTO",
        "postalCode": "38122",
        "province": "TN",
        "region": "TN",
        "fraction": "TRENTO",
        "type": "GS",
        "closingDay": "",
        "vatNumber": "",
        "supplierName": "",
        "code": "1"
      }
    },
    {
      "type": "Feature",
      "geometry": {
        "type": "Point",
        "coordinates": [
          11.1150365,
          46.0622474
        ]
      },
      "properties": {
        "number": "800453",
        "name": "HI POKE",
        "address": "V.LE ADRIANO OLIVETTI",
        "city": "TRENTO",
        "postalCode": "38122",
        "province": "TN",
        "region": "TN",
        "fraction": "TRENTO",
        "type": "FF",
        "closingDay": "",
        "vatNumber": "",
        "supplierName": "",
        "code": "0"
      }
    },
    {
      "type": "Feature",
      "geometry": {
        "type": "Point",
        "coordinates": [
          11.1154958,
          46.061127
        ]
      },
      "properties": {
        "number": "734729",
        "name": "BOTTEGA DEL CAFFE'",
        "address": "V.LE ADRIANO OLIVETTI",
        "city": "TRENTO",
        "postalCode": "38122",
        "province": "TN",
        "region": "TN",
        "fraction": "TRENTO",
        "type": "GA",
        "closingDay": "",
        "vatNumber": "",
        "supplierName": "",
        "code": "0"
      }
    },
    {
      "type": "Feature",
      "geometry": {
        "type": "Point",
        "coordinates": [
          11.1191789,
          46.0760477
        ]
      },
      "properties": {
        "number": "777852",
        "name": "CHICCO D'ORO BAR",
        "address": "C.SO MICHELANGELO BUONARROTI",
        "city": "TRENTO",
        "postalCode": "38122",
        "province": "TN",
        "region": "TN",
        "fraction": "TRENTO",
        "type": "TC",
        "closingDay": "",
        "vatNumber": "",
        "supplierName": "",
        "code": "0"
      }
    },
    {
      "type": "Feature",
      "geometry": {
        "type": "Point",
        "coordinates": [
          11.1151466,
          46.0614827
        ]
      },
      "properties": {
        "number": "805785",
        "name": "URBAN FACTORYLAB",
        "address": "V.LE ADRIANO OLIVETTI",
        "city": "TRENTO",
        "postalCode": "38122",
        "province": "TN",
        "region": "TN",
        "fraction": "TRENTO",
        "type": "RI",
        "closingDay": "",
        "vatNumber": "",
        "supplierName": "",
        "code": "1"
      }
    },
    {
      "type": "Feature",
      "geometry": {
        "type": "Point",
        "coordinates": [
          11.1234022,
          46.0779054
        ]
      },
      "properties": {
        "number": "627458",
        "name": "SPORT BAR",
        "address": "V. BRENNERO",
        "city": "TRENTO",
        "postalCode": "38122",
        "province": "TN",
        "region": "TN",
        "fraction": "TRENTO",
        "type": "TF",
        "closingDay": "",
        "vatNumber": "",
        "supplierName": "",
        "code": "0"
      }
    },
    {
      "type": "Feature",
      "geometry": {
        "type": "Point",
        "coordinates": [
          11.1202471,
          46.0560527
        ]
      },
      "properties": {
        "number": "766481",
        "name": "RISTORANTE PIZZERIA AROMA",
        "address": "V. SAN PIO X",
        "city": "TRENTO",
        "postalCode": "38122",
        "province": "TN",
        "region": "TN",
        "fraction": "TRENTO",
        "type": "RP",
        "closingDay": "",
        "vatNumber": "",
        "supplierName": "",
        "code": "0"
      }
    },
    {
      "type": "Feature",
      "geometry": {
        "type": "Point",
        "coordinates": [
          11.1140107,
          46.0651598
        ]
      },
      "properties": {
        "number": "622624",
        "name": "SAPORI MEDITERRANEI RISTORANTE PIZZ",
        "address": "V. ROBERTO DA SANSEVERINO",
        "city": "TRENTO",
        "postalCode": "38122",
        "province": "TN",
        "region": "TN",
        "fraction": "TRENTO",
        "type": "RP",
        "closingDay": "",
        "vatNumber": "",
        "supplierName": "",
        "code": "0"
      }
    },
    {
      "type": "Feature",
      "geometry": {
        "type": "Point",
        "coordinates": [
          11.1181402,
          46.0572657
        ]
      },
      "properties": {
        "number": "784257",
        "name": "PRATI BAR",
        "address": "V. MUREDEI",
        "city": "TRENTO",
        "postalCode": "38122",
        "province": "TN",
        "region": "TN",
        "fraction": "TRENTO",
        "type": "TF",
        "closingDay": "",
        "vatNumber": "",
        "supplierName": "",
        "code": "0"
      }
    },
    {
      "type": "Feature",
      "geometry": {
        "type": "Point",
        "coordinates": [
          11.1316364,
          46.0559601
        ]
      },
      "properties": {
        "number": "086095",
        "name": "T.C. LOTO RISTOBAR",
        "address": "V. GOCCIADORO",
        "city": "TRENTO",
        "postalCode": "38122",
        "province": "TN",
        "region": "TN",
        "fraction": "TRENTO",
        "type": "RP",
        "closingDay": "",
        "vatNumber": "",
        "supplierName": "",
        "code": "0"
      }
    },
    {
      "type": "Feature",
      "geometry": {
        "type": "Point",
        "coordinates": [
          11.1150938,
          46.0720825
        ]
      },
      "properties": {
        "number": "812663",
        "name": "APULEIO RIVERSIDE",
        "address": "LGAD. MARCO APULEIO",
        "city": "TRENTO",
        "postalCode": "38122",
        "province": "TN",
        "region": "TN",
        "fraction": "TRENTO",
        "type": "FF",
        "closingDay": "",
        "vatNumber": "",
        "supplierName": "",
        "code": "0"
      }
    },
    {
      "type": "Feature",
      "geometry": {
        "type": "Point",
        "coordinates": [
          11.1200589,
          46.0771054
        ]
      },
      "properties": {
        "number": "779454",
        "name": "COOP TRENTINO SAIT 1",
        "address": "P.ZZA GEN ANTONIO CANTORE",
        "city": "TRENTO",
        "postalCode": "38121",
        "province": "TN",
        "region": "TN",
        "fraction": "TRENTO",
        "type": "GS",
        "closingDay": "",
        "vatNumber": "",
        "supplierName": "",
        "code": "12"
      }
    },
    {
      "type": "Feature",
      "geometry": {
        "type": "Point",
        "coordinates": [
          11.1203121,
          46.0773259
        ]
      },
      "properties": {
        "number": "778816",
        "name": "MAZZOLENI BAR PASTICCERIA",
        "address": "P.ZZA GEN ANTONIO CANTORE",
        "city": "TRENTO",
        "postalCode": "38121",
        "province": "TN",
        "region": "TN",
        "fraction": "TRENTO",
        "type": "TF",
        "closingDay": "",
        "vatNumber": "",
        "supplierName": "",
        "code": "0"
      }
    },
    {
      "type": "Feature",
      "geometry": {
        "type": "Point",
        "coordinates": [
          11.1191136,
          46.0767015
        ]
      },
      "properties": {
        "number": "734092",
        "name": "BOTTEGA DEL CAFFE DERSUT",
        "address": "V. FELICE E GREGORIO FONTANA",
        "city": "TRENTO",
        "postalCode": "38122",
        "province": "TN",
        "region": "TN",
        "fraction": "TRENTO",
        "type": "TF",
        "closingDay": "",
        "vatNumber": "",
        "supplierName": "",
        "code": "0"
      }
    },
    {
      "type": "Feature",
      "geometry": {
        "type": "Point",
        "coordinates": [
          11.1145604,
          46.0612835
        ]
      },
      "properties": {
        "number": "778924",
        "name": "DOLCEMENTE PASTICCERIA",
        "address": "V.LE COSTITUZIONE",
        "city": "TRENTO",
        "postalCode": "38121",
        "province": "TN",
        "region": "TN",
        "fraction": "TRENTO",
        "type": "TF",
        "closingDay": "",
        "vatNumber": "",
        "supplierName": "",
        "code": "0"
      }
    },
    {
      "type": "Feature",
      "geometry": {
        "type": "Point",
        "coordinates": [
          11.115215,
          46.059858
        ]
      },
      "properties": {
        "number": "800931",
        "name": "PIZZIKOTTO",
        "address": "P.ZZA DONNE LAVORATRICI",
        "city": "TRENTO",
        "postalCode": "38121",
        "province": "TN",
        "region": "TN",
        "fraction": "TRENTO",
        "type": "RP",
        "closingDay": "",
        "vatNumber": "",
        "supplierName": "",
        "code": "82"
      }
    },
    {
      "type": "Feature",
      "geometry": {
        "type": "Point",
        "coordinates": [
          11.1198183,
          46.0774589
        ]
      },
      "properties": {
        "number": "116711",
        "name": "CAFFE' ZINZORLA BAR",
        "address": "P.ZZA GEN ANTONIO CANTORE",
        "city": "TRENTO",
        "postalCode": "38121",
        "province": "TN",
        "region": "TN",
        "fraction": "TRENTO",
        "type": "TC",
        "closingDay": "",
        "vatNumber": "",
        "supplierName": "",
        "code": "0"
      }
    },
    {
      "type": "Feature",
      "geometry": {
        "type": "Point",
        "coordinates": [
          11.114588,
          46.0607229
        ]
      },
      "properties": {
        "number": "809633",
        "name": "CAFE INCONTRO NUNU S",
        "address": "V.LE COSTITUZIONE",
        "city": "TRENTO",
        "postalCode": "38121",
        "province": "TN",
        "region": "TN",
        "fraction": "TRENTO",
        "type": "TC",
        "closingDay": "",
        "vatNumber": "",
        "supplierName": "",
        "code": "0"
      }
    },
    {
      "type": "Feature",
      "geometry": {
        "type": "Point",
        "coordinates": [
          11.1146775,
          46.0601276
        ]
      },
      "properties": {
        "number": "816577",
        "name": "OLD WILD WEST",
        "address": "V. BRENNERO",
        "city": "TRENTO",
        "postalCode": "38122",
        "province": "TN",
        "region": "TN",
        "fraction": "TRENTO",
        "type": "RI",
        "closingDay": "",
        "vatNumber": "",
        "supplierName": "",
        "code": "355"
      }
    },
    {
      "type": "Feature",
      "geometry": {
        "type": "Point",
        "coordinates": [
          11.1146775,
          46.0601276
        ]
      },
      "properties": {
        "number": "771017",
        "name": "OLD WILD WEST",
        "address": "P.ZZA DONNE LAVORATRICI",
        "city": "TRENTO",
        "postalCode": "38121",
        "province": "TN",
        "region": "TN",
        "fraction": "TRENTO",
        "type": "RI",
        "closingDay": "",
        "vatNumber": "",
        "supplierName": "",
        "code": "94"
      }
    },
    {
      "type": "Feature",
      "geometry": {
        "type": "Point",
        "coordinates": [
          11.124978,
          46.053389
        ]
      },
      "properties": {
        "number": "815826",
        "name": "MARGHERITA CONAD",
        "address": "V. ANTONIO GRAMSCI",
        "city": "TRENTO",
        "postalCode": "38123",
        "province": "TN",
        "region": "TN",
        "fraction": "TRENTO",
        "type": "GS",
        "closingDay": "",
        "vatNumber": "",
        "supplierName": "",
        "code": "2"
      }
    },
    {
      "type": "Feature",
      "geometry": {
        "type": "Point",
        "coordinates": [
          11.1179257,
          46.0770719
        ]
      },
      "properties": {
        "number": "809340",
        "name": "GELATERIA IGLOO",
        "address": "V. GIOVANNI ANTONIO SCOPOLI",
        "city": "TRENTO",
        "postalCode": "38122",
        "province": "TN",
        "region": "TN",
        "fraction": "TRENTO",
        "type": "TA",
        "closingDay": "",
        "vatNumber": "",
        "supplierName": "",
        "code": "0"
      }
    },
    {
      "type": "Feature",
      "geometry": {
        "type": "Point",
        "coordinates": [
          11.1147412,
          46.0586087
        ]
      },
      "properties": {
        "number": "799730",
        "name": "CONAD",
        "address": "V. ROBERTO DA SANSEVERINO",
        "city": "TRENTO",
        "postalCode": "38122",
        "province": "TN",
        "region": "TN",
        "fraction": "TRENTO",
        "type": "GS",
        "closingDay": "",
        "vatNumber": "",
        "supplierName": "",
        "code": "2"
      }
    },
    {
      "type": "Feature",
      "geometry": {
        "type": "Point",
        "coordinates": [
          11.1300158,
          46.053506
        ]
      },
      "properties": {
        "number": "778774",
        "name": "LATTERIA DEL SOLE",
        "address": "V.LE VERONA",
        "city": "TRENTO",
        "postalCode": "38123",
        "province": "TN",
        "region": "TN",
        "fraction": "TRENTO",
        "type": "GA",
        "closingDay": "",
        "vatNumber": "",
        "supplierName": "",
        "code": "4"
      }
    },
    {
      "type": "Feature",
      "geometry": {
        "type": "Point",
        "coordinates": [
          11.1295689,
          46.0533476
        ]
      },
      "properties": {
        "number": "768819",
        "name": "MELODY 2.0 BAR",
        "address": "V.LE VERONA",
        "city": "TRENTO",
        "postalCode": "38123",
        "province": "TN",
        "region": "TN",
        "fraction": "TRENTO",
        "type": "TC",
        "closingDay": "",
        "vatNumber": "",
        "supplierName": "",
        "code": "112"
      }
    },
    {
      "type": "Feature",
      "geometry": {
        "type": "Point",
        "coordinates": [
          11.1160384,
          46.0557341
        ]
      },
      "properties": {
        "number": "681763",
        "name": "PEDRO PIZZA TAKE AWAY",
        "address": "V. GHIAIE",
        "city": "TRENTO",
        "postalCode": "38122",
        "province": "TN",
        "region": "TN",
        "fraction": "TRENTO",
        "type": "TA",
        "closingDay": "",
        "vatNumber": "",
        "supplierName": "",
        "code": "0"
      }
    },
    {
      "type": "Feature",
      "geometry": {
        "type": "Point",
        "coordinates": [
          11.1320144,
          46.0533857
        ]
      },
      "properties": {
        "number": "817834",
        "name": "PIZZA PLANET",
        "address": "V. PADRE EUSEBIO CHINI",
        "city": "TRENTO",
        "postalCode": "38123",
        "province": "TN",
        "region": "TN",
        "fraction": "TRENTO",
        "type": "TA",
        "closingDay": "",
        "vatNumber": "",
        "supplierName": "",
        "code": "0"
      }
    },
    {
      "type": "Feature",
      "geometry": {
        "type": "Point",
        "coordinates": [
          11.1163314,
          46.0775927
        ]
      },
      "properties": {
        "number": "778798",
        "name": "GOLDEN INDIA",
        "address": "V. FELICE E GREGORIO FONTANA",
        "city": "TRENTO",
        "postalCode": "38122",
        "province": "TN",
        "region": "TN",
        "fraction": "TRENTO",
        "type": "RP",
        "closingDay": "",
        "vatNumber": "",
        "supplierName": "",
        "code": "0"
      }
    },
    {
      "type": "Feature",
      "geometry": {
        "type": "Point",
        "coordinates": [
          11.1166968,
          46.0790841
        ]
      },
      "properties": {
        "number": "717768",
        "name": "BAR ROSY",
        "address": "V. GIOVANNI PEDROTTI",
        "city": "TRENTO",
        "postalCode": "38121",
        "province": "TN",
        "region": "TN",
        "fraction": "TRENTO",
        "type": "TC",
        "closingDay": "",
        "vatNumber": "",
        "supplierName": "",
        "code": "0"
      }
    },
    {
      "type": "Feature",
      "geometry": {
        "type": "Point",
        "coordinates": [
          11.12268,
          46.0836299
        ]
      },
      "properties": {
        "number": "052552",
        "name": "ALPI RISTORANTE",
        "address": "V. SOLTERI",
        "city": "TRENTO",
        "postalCode": "38121",
        "province": "TN",
        "region": "TN",
        "fraction": "TRENTO",
        "type": "SS",
        "closingDay": "",
        "vatNumber": "",
        "supplierName": "",
        "code": "0"
      }
    },
    {
      "type": "Feature",
      "geometry": {
        "type": "Point",
        "coordinates": [
          11.1264176,
          46.0487102
        ]
      },
      "properties": {
        "number": "711663",
        "name": "FONTANARI BAR",
        "address": "V. ALCIDE DE GASPERI",
        "city": "TRENTO",
        "postalCode": "38123",
        "province": "TN",
        "region": "TN",
        "fraction": "TRENTO",
        "type": "TF",
        "closingDay": "",
        "vatNumber": "",
        "supplierName": "",
        "code": "0"
      }
    },
    {
      "type": "Feature",
      "geometry": {
        "type": "Point",
        "coordinates": [
          11.1162699,
          46.0815017
        ]
      },
      "properties": {
        "number": "809407",
        "name": "EIS CENTER MASON",
        "address": "V. EZIO MACCANI",
        "city": "TRENTO",
        "postalCode": "38121",
        "province": "TN",
        "region": "TN",
        "fraction": "TRENTO",
        "type": "TA",
        "closingDay": "",
        "vatNumber": "",
        "supplierName": "",
        "code": "0"
      }
    },
    {
      "type": "Feature",
      "geometry": {
        "type": "Point",
        "coordinates": [
          11.1230569,
          46.0843189
        ]
      },
      "properties": {
        "number": "726414",
        "name": "LA CUCINA DEL CHICCO RISTORANTE",
        "address": "V. SOLTERI",
        "city": "TRENTO",
        "postalCode": "38121",
        "province": "TN",
        "region": "TN",
        "fraction": "TRENTO",
        "type": "RI",
        "closingDay": "",
        "vatNumber": "",
        "supplierName": "",
        "code": "0"
      }
    },
    {
      "type": "Feature",
      "geometry": {
        "type": "Point",
        "coordinates": [
          11.1261202,
          46.0474989
        ]
      },
      "properties": {
        "number": "767225",
        "name": "NIKI'S ALCHIMIA DEL GUSTO",
        "address": "V. ENRICO FERMI",
        "city": "TRENTO",
        "postalCode": "38123",
        "province": "TN",
        "region": "TN",
        "fraction": "TRENTO",
        "type": "RP",
        "closingDay": "",
        "vatNumber": "",
        "supplierName": "",
        "code": "3"
      }
    },
    {
      "type": "Feature",
      "geometry": {
        "type": "Point",
        "coordinates": [
          11.1417397,
          46.0768405
        ]
      },
      "properties": {
        "number": "804108",
        "name": "FAMIGLIA COOPERATIVA DI COGNOLA",
        "address": "P.ZZA ARGENTARIO",
        "city": "TRENTO",
        "postalCode": "38121",
        "province": "TN",
        "region": "TN",
        "fraction": "TRENTO",
        "type": "GS",
        "closingDay": "",
        "vatNumber": "",
        "supplierName": "",
        "code": "3"
      }
    },
    {
      "type": "Feature",
      "geometry": {
        "type": "Point",
        "coordinates": [
          11.1262607,
          46.0472526
        ]
      },
      "properties": {
        "number": "781349",
        "name": "POLI SUPERMERCATI",
        "address": "V. ENRICO FERMI",
        "city": "TRENTO",
        "postalCode": "38123",
        "province": "TN",
        "region": "TN",
        "fraction": "TRENTO",
        "type": "GS",
        "closingDay": "",
        "vatNumber": "",
        "supplierName": "",
        "code": "16"
      }
    },
    {
      "type": "Feature",
      "geometry": {
        "type": "Point",
        "coordinates": [
          11.1150716,
          46.0833416
        ]
      },
      "properties": {
        "number": "781340",
        "name": "POLI SUPERMERCATI",
        "address": "V. EZIO MACCANI",
        "city": "TRENTO",
        "postalCode": "38121",
        "province": "TN",
        "region": "TN",
        "fraction": "TRENTO",
        "type": "GS",
        "closingDay": "",
        "vatNumber": "",
        "supplierName": "",
        "code": "7"
      }
    },
    {
      "type": "Feature",
      "geometry": {
        "type": "Point",
        "coordinates": [
          11.119652,
          46.086063
        ]
      },
      "properties": {
        "number": "695892",
        "name": "DA ANDREA PIZZA AL TAGLIO",
        "address": "V. ANTONIO PRANZELORES",
        "city": "TRENTO",
        "postalCode": "38121",
        "province": "TN",
        "region": "TN",
        "fraction": "TRENTO",
        "type": "TA",
        "closingDay": "",
        "vatNumber": "",
        "supplierName": "",
        "code": "3"
      }
    },
    {
      "type": "Feature",
      "geometry": {
        "type": "Point",
        "coordinates": [
          11.1217675,
          46.0868747
        ]
      },
      "properties": {
        "number": "779456",
        "name": "COOP TRENTINO SAIT 6",
        "address": "V. SOLTERI",
        "city": "TRENTO",
        "postalCode": "38121",
        "province": "TN",
        "region": "TN",
        "fraction": "TRENTO",
        "type": "GS",
        "closingDay": "",
        "vatNumber": "",
        "supplierName": "",
        "code": "14"
      }
    },
    {
      "type": "Feature",
      "geometry": {
        "type": "Point",
        "coordinates": [
          11.1212712,
          46.0867731
        ]
      },
      "properties": {
        "number": "778830",
        "name": "GELATERIA MIO & BIO",
        "address": "V. SOLTERI",
        "city": "TRENTO",
        "postalCode": "38121",
        "province": "TN",
        "region": "TN",
        "fraction": "TRENTO",
        "type": "TA",
        "closingDay": "",
        "vatNumber": "",
        "supplierName": "",
        "code": "0"
      }
    },
    {
      "type": "Feature",
      "geometry": {
        "type": "Point",
        "coordinates": [
          11.12,
          46.0866667
        ]
      },
      "properties": {
        "number": "685675",
        "name": "TRITTICO RIST. PIZZ.",
        "address": "P.ZZA TRIDENTE",
        "city": "TRENTO",
        "postalCode": "38121",
        "province": "TN",
        "region": "TN",
        "fraction": "TRENTO",
        "type": "RP",
        "closingDay": "",
        "vatNumber": "",
        "supplierName": "",
        "code": "0"
      }
    },
    {
      "type": "Feature",
      "geometry": {
        "type": "Point",
        "coordinates": [
          11.1173125,
          46.0857585
        ]
      },
      "properties": {
        "number": "754394",
        "name": "SUSHI LAND",
        "address": "V. BRENNERO",
        "city": "TRENTO",
        "postalCode": "38121",
        "province": "TN",
        "region": "TN",
        "fraction": "TRENTO",
        "type": "RI",
        "closingDay": "",
        "vatNumber": "",
        "supplierName": "",
        "code": "0"
      }
    },
    {
      "type": "Feature",
      "geometry": {
        "type": "Point",
        "coordinates": [
          11.1198795,
          46.0868332
        ]
      },
      "properties": {
        "number": "653433",
        "name": "WILLY'S CAFE'",
        "address": "V. ANTONIO PRANZELORES",
        "city": "TRENTO",
        "postalCode": "38121",
        "province": "TN",
        "region": "TN",
        "fraction": "TRENTO",
        "type": "TC",
        "closingDay": "",
        "vatNumber": "",
        "supplierName": "",
        "code": "0"
      }
    },
    {
      "type": "Feature",
      "geometry": {
        "type": "Point",
        "coordinates": [
          11.1213976,
          46.0872184
        ]
      },
      "properties": {
        "number": "818978",
        "name": "BOTANICAL 36",
        "address": "V. SOLTERI",
        "city": "TRENTO",
        "postalCode": "38121",
        "province": "TN",
        "region": "TN",
        "fraction": "TRENTO",
        "type": "TC",
        "closingDay": "",
        "vatNumber": "",
        "supplierName": "",
        "code": "0"
      }
    },
    {
      "type": "Feature",
      "geometry": {
        "type": "Point",
        "coordinates": [
          11.1288732,
          46.0445302
        ]
      },
      "properties": {
        "number": "663706",
        "name": "MORDI E FUGGI",
        "address": "V. CENTRO DIREZIONALE TRENTO SUD",
        "city": "TRENTO",
        "postalCode": "38123",
        "province": "TN",
        "region": "TN",
        "fraction": "TRENTO",
        "type": "RP",
        "closingDay": "",
        "vatNumber": "",
        "supplierName": "",
        "code": "0"
      }
    },
    {
      "type": "Feature",
      "geometry": {
        "type": "Point",
        "coordinates": [
          11.1291593,
          46.0445305
        ]
      },
      "properties": {
        "number": "793584",
        "name": "COOP SUPERSTORE",
        "address": "V. CENTRO DIREZIONALE TRENTO SUD",
        "city": "TRENTO",
        "postalCode": "38100",
        "province": "TN",
        "region": "TN",
        "fraction": "TRENTO",
        "type": "GS",
        "closingDay": "",
        "vatNumber": "",
        "supplierName": "",
        "code": "0"
      }
    },
    {
      "type": "Feature",
      "geometry": {
        "type": "Point",
        "coordinates": [
          11.1135453,
          46.08491
        ]
      },
      "properties": {
        "number": "799999",
        "name": "GOODFELLAS",
        "address": "V. EZIO MACCANI",
        "city": "TRENTO",
        "postalCode": "38121",
        "province": "TN",
        "region": "TN",
        "fraction": "TRENTO",
        "type": "RP",
        "closingDay": "",
        "vatNumber": "",
        "supplierName": "",
        "code": "0"
      }
    },
    {
      "type": "Feature",
      "geometry": {
        "type": "Point",
        "coordinates": [
          11.1212164,
          46.0882606
        ]
      },
      "properties": {
        "number": "703566",
        "name": "NO FORMAT",
        "address": "V. SOLTERI",
        "city": "TRENTO",
        "postalCode": "38121",
        "province": "TN",
        "region": "TN",
        "fraction": "TRENTO",
        "type": "TC",
        "closingDay": "",
        "vatNumber": "",
        "supplierName": "",
        "code": "0"
      }
    },
    {
      "type": "Feature",
      "geometry": {
        "type": "Point",
        "coordinates": [
          11.1208959,
          46.0445843
        ]
      },
      "properties": {
        "number": "820379",
        "name": "CONTRO BREAK",
        "address": "V. FERSINA",
        "city": "TRENTO",
        "postalCode": "38123",
        "province": "TN",
        "region": "TN",
        "fraction": "TRENTO",
        "type": "RI",
        "closingDay": "",
        "vatNumber": "",
        "supplierName": "",
        "code": "0"
      }
    },
    {
      "type": "Feature",
      "geometry": {
        "type": "Point",
        "coordinates": [
          11.1180702,
          46.0875436
        ]
      },
      "properties": {
        "number": "816474",
        "name": "IPER POLI",
        "address": "V. BRENNERO",
        "city": "TRENTO",
        "postalCode": "38121",
        "province": "TN",
        "region": "TN",
        "fraction": "TRENTO",
        "type": "GS",
        "closingDay": "",
        "vatNumber": "",
        "supplierName": "",
        "code": "33"
      }
    },
    {
      "type": "Feature",
      "geometry": {
        "type": "Point",
        "coordinates": [
          11.1208375,
          46.0889979
        ]
      },
      "properties": {
        "number": "818106",
        "name": "RED MOON",
        "address": "V. SOLTERI",
        "city": "TRENTO",
        "postalCode": "38121",
        "province": "TN",
        "region": "TN",
        "fraction": "TRENTO",
        "type": "RI",
        "closingDay": "",
        "vatNumber": "",
        "supplierName": "",
        "code": "1"
      }
    },
    {
      "type": "Feature",
      "geometry": {
        "type": "Point",
        "coordinates": [
          11.1175049,
          46.0885476
        ]
      },
      "properties": {
        "number": "726718",
        "name": "WOK FOR YOU SUSHI",
        "address": "V. LUIGI BRUGNARA",
        "city": "TRENTO",
        "postalCode": "38121",
        "province": "TN",
        "region": "TN",
        "fraction": "TRENTO",
        "type": "RI",
        "closingDay": "",
        "vatNumber": "",
        "supplierName": "",
        "code": "0"
      }
    },
    {
      "type": "Feature",
      "geometry": {
        "type": "Point",
        "coordinates": [
          11.148691,
          46.0732109
        ]
      },
      "properties": {
        "number": "819091",
        "name": "CACIO E PEPE",
        "address": "V. PONTE ALTO",
        "city": "TRENTO",
        "postalCode": "38121",
        "province": "TN",
        "region": "TN",
        "fraction": "TRENTO",
        "type": "RP",
        "closingDay": "",
        "vatNumber": "",
        "supplierName": "",
        "code": "0"
      }
    },
    {
      "type": "Feature",
      "geometry": {
        "type": "Point",
        "coordinates": [
          11.1318771,
          46.0897352
        ]
      },
      "properties": {
        "number": "816101",
        "name": "CONAD",
        "address": "V. FORMIGHETA",
        "city": "TRENTO",
        "postalCode": "38121",
        "province": "TN",
        "region": "TN",
        "fraction": "TRENTO",
        "type": "GS",
        "closingDay": "",
        "vatNumber": "",
        "supplierName": "",
        "code": "0"
      }
    },
    {
      "type": "Feature",
      "geometry": {
        "type": "Point",
        "coordinates": [
          11.1170036,
          46.0901928
        ]
      },
      "properties": {
        "number": "744769",
        "name": "PAPPAMI",
        "address": "V. BRENNERO",
        "city": "TRENTO",
        "postalCode": "38121",
        "province": "TN",
        "region": "TN",
        "fraction": "TRENTO",
        "type": "RI",
        "closingDay": "",
        "vatNumber": "",
        "supplierName": "",
        "code": "0"
      }
    },
    {
      "type": "Feature",
      "geometry": {
        "type": "Point",
        "coordinates": [
          11.1154738,
          46.0896693
        ]
      },
      "properties": {
        "number": "655423",
        "name": "MAGNETE PIZZERIA BAR RISTORANTE",
        "address": "PASS. BENVENUTO DISERTORI",
        "city": "TRENTO",
        "postalCode": "38121",
        "province": "TN",
        "region": "TN",
        "fraction": "TRENTO",
        "type": "RP",
        "closingDay": "",
        "vatNumber": "",
        "supplierName": "",
        "code": "0"
      }
    },
    {
      "type": "Feature",
      "geometry": {
        "type": "Point",
        "coordinates": [
          11.1513054,
          46.0680352
        ]
      },
      "properties": {
        "number": "811465",
        "name": "BAR FONDAZIONE BRUNO KESSLER",
        "address": "V. SOMMARIVE",
        "city": "TRENTO",
        "postalCode": "38123",
        "province": "TN",
        "region": "TN",
        "fraction": "TRENTO",
        "type": "TC",
        "closingDay": "",
        "vatNumber": "",
        "supplierName": "",
        "code": "286"
      }
    },
    {
      "type": "Feature",
      "geometry": {
        "type": "Point",
        "coordinates": [
          11.1174942,
          46.0906552
        ]
      },
      "properties": {
        "number": "768951",
        "name": "SOSI A TRENTO DAL 1923",
        "address": "V.LE ROVERETO",
        "city": "TRENTO",
        "postalCode": "38122",
        "province": "TN",
        "region": "TN",
        "fraction": "TRENTO",
        "type": "TC",
        "closingDay": "",
        "vatNumber": "",
        "supplierName": "",
        "code": "13"
      }
    },
    {
      "type": "Feature",
      "geometry": {
        "type": "Point",
        "coordinates": [
          11.1174942,
          46.0906552
        ]
      },
      "properties": {
        "number": "768952",
        "name": "SOSI A TRENTO DAL 1923",
        "address": "V. SOLTERI",
        "city": "TRENTO",
        "postalCode": "38121",
        "province": "TN",
        "region": "TN",
        "fraction": "TRENTO",
        "type": "TC",
        "closingDay": "",
        "vatNumber": "",
        "supplierName": "",
        "code": "14"
      }
    },
    {
      "type": "Feature",
      "geometry": {
        "type": "Point",
        "coordinates": [
          11.1174942,
          46.0906552
        ]
      },
      "properties": {
        "number": "114639",
        "name": "SOSI A TRENTO DAL 1923",
        "address": "V. SUFFRAGIO",
        "city": "TRENTO",
        "postalCode": "38122",
        "province": "TN",
        "region": "TN",
        "fraction": "TRENTO",
        "type": "GA",
        "closingDay": "",
        "vatNumber": "",
        "supplierName": "",
        "code": "3"
      }
    },
    {
      "type": "Feature",
      "geometry": {
        "type": "Point",
        "coordinates": [
          11.1174942,
          46.0906552
        ]
      },
      "properties": {
        "number": "793923",
        "name": "SOSI A TRENTO DAL 1923",
        "address": "V.LE VERONA",
        "city": "TRENTO",
        "postalCode": "38123",
        "province": "TN",
        "region": "TN",
        "fraction": "TRENTO",
        "type": "TC",
        "closingDay": "",
        "vatNumber": "",
        "supplierName": "",
        "code": "15"
      }
    },
    {
      "type": "Feature",
      "geometry": {
        "type": "Point",
        "coordinates": [
          11.1174942,
          46.0906552
        ]
      },
      "properties": {
        "number": "627633",
        "name": "SOSI A TRENTO DAL 1923",
        "address": "V. BOLGHERA",
        "city": "TRENTO",
        "postalCode": "38122",
        "province": "TN",
        "region": "TN",
        "fraction": "TRENTO",
        "type": "GA",
        "closingDay": "",
        "vatNumber": "",
        "supplierName": "",
        "code": "8"
      }
    },
    {
      "type": "Feature",
      "geometry": {
        "type": "Point",
        "coordinates": [
          11.1174942,
          46.0906552
        ]
      },
      "properties": {
        "number": "125315",
        "name": "SOSI A TRENTO DAL 1923",
        "address": "GALL. TIRRENA",
        "city": "TRENTO",
        "postalCode": "38122",
        "province": "TN",
        "region": "TN",
        "fraction": "TRENTO",
        "type": "TC",
        "closingDay": "",
        "vatNumber": "",
        "supplierName": "",
        "code": "7"
      }
    },
    {
      "type": "Feature",
      "geometry": {
        "type": "Point",
        "coordinates": [
          11.1169665,
          46.0905038
        ]
      },
      "properties": {
        "number": "109482",
        "name": "TOP BAR",
        "address": "V. BRENNERO",
        "city": "TRENTO",
        "postalCode": "38121",
        "province": "TN",
        "region": "TN",
        "fraction": "TRENTO",
        "type": "TF",
        "closingDay": "",
        "vatNumber": "",
        "supplierName": "",
        "code": "0"
      }
    },
    {
      "type": "Feature",
      "geometry": {
        "type": "Point",
        "coordinates": [
          11.1155734,
          46.0899591
        ]
      },
      "properties": {
        "number": "664830",
        "name": "CAFE' NORD RIST.",
        "address": "PASS. BENVENUTO DISERTORI",
        "city": "TRENTO",
        "postalCode": "38121",
        "province": "TN",
        "region": "TN",
        "fraction": "TRENTO",
        "type": "RI",
        "closingDay": "",
        "vatNumber": "",
        "supplierName": "",
        "code": "0"
      }
    },
    {
      "type": "Feature",
      "geometry": {
        "type": "Point",
        "coordinates": [
          11.1169585,
          46.0906013
        ]
      },
      "properties": {
        "number": "738922",
        "name": "NEW LIFE BAR",
        "address": "V. BRENNERO",
        "city": "TRENTO",
        "postalCode": "38121",
        "province": "TN",
        "region": "TN",
        "fraction": "TRENTO",
        "type": "TF",
        "closingDay": "",
        "vatNumber": "",
        "supplierName": "",
        "code": "0"
      }
    },
    {
      "type": "Feature",
      "geometry": {
        "type": "Point",
        "coordinates": [
          11.1169477,
          46.0905984
        ]
      },
      "properties": {
        "number": "817412",
        "name": "PIZZA AL TOP",
        "address": "V. BRENNERO",
        "city": "TRENTO",
        "postalCode": "38121",
        "province": "TN",
        "region": "TN",
        "fraction": "TRENTO",
        "type": "RP",
        "closingDay": "",
        "vatNumber": "",
        "supplierName": "",
        "code": "0"
      }
    },
    {
      "type": "Feature",
      "geometry": {
        "type": "Point",
        "coordinates": [
          11.1152595,
          46.0901022
        ]
      },
      "properties": {
        "number": "805778",
        "name": "ALADIN FAST FOOD",
        "address": "PASS. BENVENUTO DISERTORI",
        "city": "TRENTO",
        "postalCode": "38121",
        "province": "TN",
        "region": "TN",
        "fraction": "TRENTO",
        "type": "FF",
        "closingDay": "",
        "vatNumber": "",
        "supplierName": "",
        "code": "0"
      }
    },
    {
      "type": "Feature",
      "geometry": {
        "type": "Point",
        "coordinates": [
          11.1168451,
          46.090799
        ]
      },
      "properties": {
        "number": "812215",
        "name": "FREE TIME SALA GIOCHI",
        "address": "V. BRENNERO",
        "city": "TRENTO",
        "postalCode": "38121",
        "province": "TN",
        "region": "TN",
        "fraction": "TRENTO",
        "type": "TC",
        "closingDay": "",
        "vatNumber": "",
        "supplierName": "",
        "code": "0"
      }
    },
    {
      "type": "Feature",
      "geometry": {
        "type": "Point",
        "coordinates": [
          11.1199181,
          46.0921044
        ]
      },
      "properties": {
        "number": "716155",
        "name": "DETTO FATTO",
        "address": "V. RENATO LUNELLI",
        "city": "TRENTO",
        "postalCode": "38121",
        "province": "TN",
        "region": "TN",
        "fraction": "TRENTO",
        "type": "RI",
        "closingDay": "",
        "vatNumber": "",
        "supplierName": "",
        "code": "0"
      }
    },
    {
      "type": "Feature",
      "geometry": {
        "type": "Point",
        "coordinates": [
          11.1153826,
          46.0909823
        ]
      },
      "properties": {
        "number": "730817",
        "name": "ROADHOUSE GRILL TRENTO",
        "address": "V. BRENNERO",
        "city": "TRENTO",
        "postalCode": "38121",
        "province": "TN",
        "region": "TN",
        "fraction": "TRENTO",
        "type": "RI",
        "closingDay": "",
        "vatNumber": "",
        "supplierName": "",
        "code": "67"
      }
    },
    {
      "type": "Feature",
      "geometry": {
        "type": "Point",
        "coordinates": [
          11.132997,
          46.040649
        ]
      },
      "properties": {
        "number": "812746",
        "name": "LA TERRAZZA RISTORANTE PIZZERIA",
        "address": "P.LE EUROPA",
        "city": "TRENTO",
        "postalCode": "38123",
        "province": "TN",
        "region": "TN",
        "fraction": "TRENTO",
        "type": "RP",
        "closingDay": "",
        "vatNumber": "",
        "supplierName": "",
        "code": "1"
      }
    },
    {
      "type": "Feature",
      "geometry": {
        "type": "Point",
        "coordinates": [
          11.1331233,
          46.0405617
        ]
      },
      "properties": {
        "number": "778768",
        "name": "COOP TRENTINO SAIT 8",
        "address": "V. CLORINDA VEGLIA MENGUZZATO",
        "city": "TRENTO",
        "postalCode": "38123",
        "province": "TN",
        "region": "TN",
        "fraction": "TRENTO",
        "type": "GS",
        "closingDay": "",
        "vatNumber": "",
        "supplierName": "",
        "code": "11"
      }
    },
    {
      "type": "Feature",
      "geometry": {
        "type": "Point",
        "coordinates": [
          11.1158309,
          46.0914871
        ]
      },
      "properties": {
        "number": "753189",
        "name": "SAPORE DI MARE",
        "address": "V. BRENNERO",
        "city": "TRENTO",
        "postalCode": "38121",
        "province": "TN",
        "region": "TN",
        "fraction": "TRENTO",
        "type": "GS",
        "closingDay": "",
        "vatNumber": "",
        "supplierName": "",
        "code": "66"
      }
    },
    {
      "type": "Feature",
      "geometry": {
        "type": "Point",
        "coordinates": [
          11.1180963,
          46.0925042
        ]
      },
      "properties": {
        "number": "647542",
        "name": "BENNY TAKE AWAY",
        "address": "V. RENATO LUNELLI",
        "city": "TRENTO",
        "postalCode": "38121",
        "province": "TN",
        "region": "TN",
        "fraction": "TRENTO",
        "type": "TA",
        "closingDay": "",
        "vatNumber": "",
        "supplierName": "",
        "code": "0"
      }
    },
    {
      "type": "Feature",
      "geometry": {
        "type": "Point",
        "coordinates": [
          11.1173661,
          46.0923217
        ]
      },
      "properties": {
        "number": "116958",
        "name": "CAFFE' ONDA",
        "address": "V. RENATO LUNELLI",
        "city": "TRENTO",
        "postalCode": "38121",
        "province": "TN",
        "region": "TN",
        "fraction": "TRENTO",
        "type": "TF",
        "closingDay": "",
        "vatNumber": "",
        "supplierName": "",
        "code": "1"
      }
    },
    {
      "type": "Feature",
      "geometry": {
        "type": "Point",
        "coordinates": [
          11.1029374,
          46.0820787
        ]
      },
      "properties": {
        "number": "102581",
        "name": "HOTEL VELA RISTORANTE",
        "address": "V. SANTI COSMA E DAMIANO",
        "city": "TRENTO",
        "postalCode": "38121",
        "province": "TN",
        "region": "TN",
        "fraction": "TRENTO",
        "type": "RP",
        "closingDay": "",
        "vatNumber": "",
        "supplierName": "",
        "code": "0"
      }
    },
    {
      "type": "Feature",
      "geometry": {
        "type": "Point",
        "coordinates": [
          11.1180415,
          46.0931616
        ]
      },
      "properties": {
        "number": "823140",
        "name": "SMILE BAR",
        "address": "V. ROMANO GUARDINI",
        "city": "TRENTO",
        "postalCode": "38121",
        "province": "TN",
        "region": "TN",
        "fraction": "TRENTO",
        "type": "TC",
        "closingDay": "",
        "vatNumber": "",
        "supplierName": "",
        "code": "0"
      }
    },
    {
      "type": "Feature",
      "geometry": {
        "type": "Point",
        "coordinates": [
          11.1305879,
          46.0939419
        ]
      },
      "properties": {
        "number": "739328",
        "name": "AI CANOPI RISTORANTE PIZZERIA",
        "address": "V. BOLLERI",
        "city": "TRENTO",
        "postalCode": "38121",
        "province": "TN",
        "region": "TN",
        "fraction": "TRENTO",
        "type": "RP",
        "closingDay": "",
        "vatNumber": "",
        "supplierName": "",
        "code": "0"
      }
    },
    {
      "type": "Feature",
      "geometry": {
        "type": "Point",
        "coordinates": [
          11.1542037,
          46.0658135
        ]
      },
      "properties": {
        "number": "812293",
        "name": "PANE E NON SOLO",
        "address": "V. DON TOMMASO DALLAFIOR",
        "city": "TRENTO",
        "postalCode": "38123",
        "province": "TN",
        "region": "TN",
        "fraction": "TRENTO",
        "type": "TF",
        "closingDay": "",
        "vatNumber": "",
        "supplierName": "",
        "code": "0"
      }
    },
    {
      "type": "Feature",
      "geometry": {
        "type": "Point",
        "coordinates": [
          11.1187013,
          46.0941449
        ]
      },
      "properties": {
        "number": "745479",
        "name": "TARTUFO RISTORANTE PIZZERIA",
        "address": "V. PADRE EMILIO CHIOCCHETTI",
        "city": "TRENTO",
        "postalCode": "38121",
        "province": "TN",
        "region": "TN",
        "fraction": "TRENTO",
        "type": "RP",
        "closingDay": "",
        "vatNumber": "",
        "supplierName": "",
        "code": "0"
      }
    },
    {
      "type": "Feature",
      "geometry": {
        "type": "Point",
        "coordinates": [
          11.1199745,
          46.0944518
        ]
      },
      "properties": {
        "number": "786650",
        "name": "BISTRO' SAPORI DI STELLE",
        "address": "V. PADRE EMILIO CHIOCCHETTI",
        "city": "TRENTO",
        "postalCode": "38121",
        "province": "TN",
        "region": "TN",
        "fraction": "TRENTO",
        "type": "TC",
        "closingDay": "",
        "vatNumber": "",
        "supplierName": "",
        "code": "0"
      }
    },
    {
      "type": "Feature",
      "geometry": {
        "type": "Point",
        "coordinates": [
          11.1183384,
          46.0941355
        ]
      },
      "properties": {
        "number": "738934",
        "name": "DOLCE MONDO",
        "address": "V. PADRE EMILIO CHIOCCHETTI",
        "city": "TRENTO",
        "postalCode": "38121",
        "province": "TN",
        "region": "TN",
        "fraction": "TRENTO",
        "type": "TF",
        "closingDay": "",
        "vatNumber": "",
        "supplierName": "",
        "code": "0"
      }
    },
    {
      "type": "Feature",
      "geometry": {
        "type": "Point",
        "coordinates": [
          11.1544596,
          46.0662383
        ]
      },
      "properties": {
        "number": "804107",
        "name": "FAMIGLIA COOPERATIVA DI POVO",
        "address": "P.ZZA GIANNANTONIO MANCI",
        "city": "TRENTO",
        "postalCode": "38123",
        "province": "TN",
        "region": "TN",
        "fraction": "TRENTO",
        "type": "GS",
        "closingDay": "",
        "vatNumber": "",
        "supplierName": "",
        "code": "2"
      }
    },
    {
      "type": "Feature",
      "geometry": {
        "type": "Point",
        "coordinates": [
          11.1180648,
          46.0942447
        ]
      },
      "properties": {
        "number": "809580",
        "name": "TRE TORRI CAFE",
        "address": "V. ROMANO GUARDINI",
        "city": "TRENTO",
        "postalCode": "38121",
        "province": "TN",
        "region": "TN",
        "fraction": "TRENTO",
        "type": "TF",
        "closingDay": "",
        "vatNumber": "",
        "supplierName": "",
        "code": "0"
      }
    },
    {
      "type": "Feature",
      "geometry": {
        "type": "Point",
        "coordinates": [
          11.1550043,
          46.0661932
        ]
      },
      "properties": {
        "number": "784274",
        "name": "SAPORI DI GASTRONOMIA",
        "address": "V. RESISTENZA",
        "city": "TRENTO",
        "postalCode": "38123",
        "province": "TN",
        "region": "TN",
        "fraction": "TRENTO",
        "type": "GA",
        "closingDay": "",
        "vatNumber": "",
        "supplierName": "",
        "code": "0"
      }
    },
    {
      "type": "Feature",
      "geometry": {
        "type": "Point",
        "coordinates": [
          11.1117795,
          46.0407096
        ]
      },
      "properties": {
        "number": "137364",
        "name": "ACQUABLU RISTORANTE PIZZERIA",
        "address": "V. HERSCHING",
        "city": "TRENTO",
        "postalCode": "38123",
        "province": "TN",
        "region": "TN",
        "fraction": "TRENTO",
        "type": "RP",
        "closingDay": "",
        "vatNumber": "",
        "supplierName": "",
        "code": "1"
      }
    },
    {
      "type": "Feature",
      "geometry": {
        "type": "Point",
        "coordinates": [
          11.1115589,
          46.0407694
        ]
      },
      "properties": {
        "number": "777896",
        "name": "COOP TRENTINO SAIT 7",
        "address": "V. HERRSCHING",
        "city": "TRENTO",
        "postalCode": "38123",
        "province": "TN",
        "region": "TN",
        "fraction": "TRENTO",
        "type": "GS",
        "closingDay": "",
        "vatNumber": "",
        "supplierName": "",
        "code": "5"
      }
    },
    {
      "type": "Feature",
      "geometry": {
        "type": "Point",
        "coordinates": [
          11.1550973,
          46.0663098
        ]
      },
      "properties": {
        "number": "822331",
        "name": "PIZZA RIO",
        "address": "V. RESISTENZA",
        "city": "TRENTO",
        "postalCode": "38123",
        "province": "TN",
        "region": "TN",
        "fraction": "TRENTO",
        "type": "TA",
        "closingDay": "",
        "vatNumber": "",
        "supplierName": "",
        "code": "0"
      }
    },
    {
      "type": "Feature",
      "geometry": {
        "type": "Point",
        "coordinates": [
          11.111631,
          46.0406504
        ]
      },
      "properties": {
        "number": "745324",
        "name": "LO SFIZIO",
        "address": "V. HERSCHING",
        "city": "TRENTO",
        "postalCode": "38123",
        "province": "TN",
        "region": "TN",
        "fraction": "TRENTO",
        "type": "GA",
        "closingDay": "",
        "vatNumber": "",
        "supplierName": "",
        "code": "0"
      }
    },
    {
      "type": "Feature",
      "geometry": {
        "type": "Point",
        "coordinates": [
          11.0963852,
          46.0642783
        ]
      },
      "properties": {
        "number": "777901",
        "name": "OSTERIA SAN ROCCO",
        "address": "V. LODOVICO DE BALZANI",
        "city": "TRENTO",
        "postalCode": "38123",
        "province": "TN",
        "region": "TN",
        "fraction": "TRENTO",
        "type": "TR",
        "closingDay": "",
        "vatNumber": "",
        "supplierName": "",
        "code": "2"
      }
    },
    {
      "type": "Feature",
      "geometry": {
        "type": "Point",
        "coordinates": [
          11.1157773,
          46.0942927
        ]
      },
      "properties": {
        "number": "805777",
        "name": "RED ROSE CAFE'",
        "address": "V. GIOVANNI BATTISTA TRENER",
        "city": "TRENTO",
        "postalCode": "38121",
        "province": "TN",
        "region": "TN",
        "fraction": "TRENTO",
        "type": "TC",
        "closingDay": "",
        "vatNumber": "",
        "supplierName": "",
        "code": "0"
      }
    },
    {
      "type": "Feature",
      "geometry": {
        "type": "Point",
        "coordinates": [
          11.1158519,
          46.0943599
        ]
      },
      "properties": {
        "number": "765842",
        "name": "CAFFE' ZURIGO",
        "address": "V. GIOVANNI BATTISTA TRENER",
        "city": "TRENTO",
        "postalCode": "38121",
        "province": "TN",
        "region": "TN",
        "fraction": "TRENTO",
        "type": "TF",
        "closingDay": "",
        "vatNumber": "",
        "supplierName": "",
        "code": "1"
      }
    },
    {
      "type": "Feature",
      "geometry": {
        "type": "Point",
        "coordinates": [
          11.1158519,
          46.0943599
        ]
      },
      "properties": {
        "number": "715702",
        "name": "PIZZA SMILE",
        "address": "V. GIOVANNI BATTISTA TRENER",
        "city": "TRENTO",
        "postalCode": "38121",
        "province": "TN",
        "region": "TN",
        "fraction": "TRENTO",
        "type": "GA",
        "closingDay": "",
        "vatNumber": "",
        "supplierName": "",
        "code": "0"
      }
    },
    {
      "type": "Feature",
      "geometry": {
        "type": "Point",
        "coordinates": [
          11.1158519,
          46.0943599
        ]
      },
      "properties": {
        "number": "111845",
        "name": "PIZZA BAR SPORT",
        "address": "V. GIOVANNI BATTISTA TRENER",
        "city": "TRENTO",
        "postalCode": "38121",
        "province": "TN",
        "region": "TN",
        "fraction": "TRENTO",
        "type": "RP",
        "closingDay": "",
        "vatNumber": "",
        "supplierName": "",
        "code": "0"
      }
    },
    {
      "type": "Feature",
      "geometry": {
        "type": "Point",
        "coordinates": [
          11.1299592,
          46.0367743
        ]
      },
      "properties": {
        "number": "800749",
        "name": "IL MONDO SENZA GLUTINE",
        "address": "V. MADONNA BIANCA",
        "city": "TRENTO",
        "postalCode": "38123",
        "province": "TN",
        "region": "TN",
        "fraction": "TRENTO",
        "type": "GS",
        "closingDay": "",
        "vatNumber": "",
        "supplierName": "",
        "code": "1"
      }
    },
    {
      "type": "Feature",
      "geometry": {
        "type": "Point",
        "coordinates": [
          11.1302778,
          46.0366667
        ]
      },
      "properties": {
        "number": "624024",
        "name": "GROFF BAR",
        "address": "V. DI MADONNA BIANCA",
        "city": "TRENTO",
        "postalCode": "38123",
        "province": "TN",
        "region": "TN",
        "fraction": "TRENTO",
        "type": "TC",
        "closingDay": "",
        "vatNumber": "",
        "supplierName": "",
        "code": "0"
      }
    },
    {
      "type": "Feature",
      "geometry": {
        "type": "Point",
        "coordinates": [
          11.1294053,
          46.0364741
        ]
      },
      "properties": {
        "number": "791889",
        "name": "TENTAZIONI RISTORANTE E PIZZA",
        "address": "V. STELLA DI MAN",
        "city": "TRENTO",
        "postalCode": "38123",
        "province": "TN",
        "region": "TN",
        "fraction": "TRENTO",
        "type": "RP",
        "closingDay": "",
        "vatNumber": "",
        "supplierName": "",
        "code": "0"
      }
    },
    {
      "type": "Feature",
      "geometry": {
        "type": "Point",
        "coordinates": [
          11.1066577,
          46.0909983
        ]
      },
      "properties": {
        "number": "643779",
        "name": "SPAZIO PRADA BAR",
        "address": "V. COMMERCIO",
        "city": "TRENTO",
        "postalCode": "38121",
        "province": "TN",
        "region": "TN",
        "fraction": "TRENTO",
        "type": "TF",
        "closingDay": "",
        "vatNumber": "",
        "supplierName": "",
        "code": "0"
      }
    },
    {
      "type": "Feature",
      "geometry": {
        "type": "Point",
        "coordinates": [
          11.1305734,
          46.035649
        ]
      },
      "properties": {
        "number": "777536",
        "name": "PINGU GELATERIA CAFFETTERIA",
        "address": "V. MADONNA BIANCA",
        "city": "TRENTO",
        "postalCode": "38123",
        "province": "TN",
        "region": "TN",
        "fraction": "TRENTO",
        "type": "TF",
        "closingDay": "",
        "vatNumber": "",
        "supplierName": "",
        "code": "1"
      }
    },
    {
      "type": "Feature",
      "geometry": {
        "type": "Point",
        "coordinates": [
          11.10535,
          46.09107
        ]
      },
      "properties": {
        "number": "118719",
        "name": "SOSI A TRENTO DAL 1923",
        "address": "V. COMMERCIO",
        "city": "TRENTO",
        "postalCode": "38121",
        "province": "TN",
        "region": "TN",
        "fraction": "TRENTO",
        "type": "TF",
        "closingDay": "",
        "vatNumber": "",
        "supplierName": "",
        "code": "0"
      }
    },
    {
      "type": "Feature",
      "geometry": {
        "type": "Point",
        "coordinates": [
          11.1039869,
          46.0919971
        ]
      },
      "properties": {
        "number": "803862",
        "name": "BAR RISTORANTE SIRIO",
        "address": "V. COMMERCIO",
        "city": "TRENTO",
        "postalCode": "38121",
        "province": "TN",
        "region": "TN",
        "fraction": "TRENTO",
        "type": "RI",
        "closingDay": "",
        "vatNumber": "",
        "supplierName": "",
        "code": "0"
      }
    },
    {
      "type": "Feature",
      "geometry": {
        "type": "Point",
        "coordinates": [
          11.1067524,
          46.038064
        ]
      },
      "properties": {
        "number": "815656",
        "name": "PANIFICIO LARCHER",
        "address": "V. DON MANSUETO MAZZONELLI",
        "city": "TRENTO",
        "postalCode": "38123",
        "province": "TN",
        "region": "TN",
        "fraction": "TRENTO",
        "type": "GA",
        "closingDay": "",
        "vatNumber": "",
        "supplierName": "",
        "code": "1"
      }
    },
    {
      "type": "Feature",
      "geometry": {
        "type": "Point",
        "coordinates": [
          11.1075951,
          46.0371469
        ]
      },
      "properties": {
        "number": "823831",
        "name": "BISTRO' RAVINA",
        "address": "V. PRIMO MAGGIO",
        "city": "TRENTO",
        "postalCode": "38123",
        "province": "TN",
        "region": "TN",
        "fraction": "TRENTO",
        "type": "RI",
        "closingDay": "",
        "vatNumber": "",
        "supplierName": "",
        "code": "1"
      }
    },
    {
      "type": "Feature",
      "geometry": {
        "type": "Point",
        "coordinates": [
          11.1123376,
          46.1054704
        ]
      },
      "properties": {
        "number": "816562",
        "name": "MI PIGLIA FAME",
        "address": "V. QUATTRO NOVEMBRE",
        "city": "TRENTO",
        "postalCode": "38121",
        "province": "TN",
        "region": "TN",
        "fraction": "TRENTO",
        "type": "FF",
        "closingDay": "",
        "vatNumber": "",
        "supplierName": "",
        "code": "0"
      }
    },
    {
      "type": "Feature",
      "geometry": {
        "type": "Point",
        "coordinates": [
          11.1014999,
          46.1005624
        ]
      },
      "properties": {
        "number": "777571",
        "name": "GIOVA DELIZIE & FANTASIE",
        "address": "V. LUIGI CANEPPELE",
        "city": "TRENTO",
        "postalCode": "38121",
        "province": "TN",
        "region": "TN",
        "fraction": "TRENTO",
        "type": "GA",
        "closingDay": "",
        "vatNumber": "",
        "supplierName": "",
        "code": "0"
      }
    },
    {
      "type": "Feature",
      "geometry": {
        "type": "Point",
        "coordinates": [
          11.1015171,
          46.1007635
        ]
      },
      "properties": {
        "number": "815818",
        "name": "BAR AL LUPO",
        "address": "V. LUIGI CANEPPELE",
        "city": "TRENTO",
        "postalCode": "38121",
        "province": "TN",
        "region": "TN",
        "fraction": "TRENTO",
        "type": "TF",
        "closingDay": "",
        "vatNumber": "",
        "supplierName": "",
        "code": "1"
      }
    },
    {
      "type": "Feature",
      "geometry": {
        "type": "Point",
        "coordinates": [
          11.1076968,
          46.1055377
        ]
      },
      "properties": {
        "number": "781339",
        "name": "POLI SUPERMERCATI",
        "address": "V. SOPRASASSO",
        "city": "TRENTO",
        "postalCode": "38121",
        "province": "TN",
        "region": "TN",
        "fraction": "TRENTO",
        "type": "GS",
        "closingDay": "",
        "vatNumber": "",
        "supplierName": "",
        "code": "6"
      }
    },
    {
      "type": "Feature",
      "geometry": {
        "type": "Point",
        "coordinates": [
          11.1119051,
          46.1084776
        ]
      },
      "properties": {
        "number": "782857",
        "name": "FAMIGLIA COOP.VA VALLE DELL'ADIGE",
        "address": "P.ZZA LIBERTA'",
        "city": "TRENTO",
        "postalCode": "38121",
        "province": "TN",
        "region": "TN",
        "fraction": "TRENTO",
        "type": "GS",
        "closingDay": "",
        "vatNumber": "",
        "supplierName": "",
        "code": "1"
      }
    },
    {
      "type": "Feature",
      "geometry": {
        "type": "Point",
        "coordinates": [
          11.1116843,
          46.1087056
        ]
      },
      "properties": {
        "number": "778775",
        "name": "ROSTICCERIA TRENTINA",
        "address": "P.ZZA LIBERTA'",
        "city": "TRENTO",
        "postalCode": "38121",
        "province": "TN",
        "region": "TN",
        "fraction": "TRENTO",
        "type": "TA",
        "closingDay": "",
        "vatNumber": "",
        "supplierName": "",
        "code": "1"
      }
    },
    {
      "type": "Feature",
      "geometry": {
        "type": "Point",
        "coordinates": [
          11.1103138,
          46.1083286
        ]
      },
      "properties": {
        "number": "137815",
        "name": "1923...IL DOPOLAVORO PIZZERIA",
        "address": "V. SCUOLE",
        "city": "TRENTO",
        "postalCode": "38121",
        "province": "TN",
        "region": "TN",
        "fraction": "TRENTO",
        "type": "RP",
        "closingDay": "",
        "vatNumber": "",
        "supplierName": "",
        "code": "0"
      }
    },
    {
      "type": "Feature",
      "geometry": {
        "type": "Point",
        "coordinates": [
          11.0972928,
          46.1031944
        ]
      },
      "properties": {
        "number": "777570",
        "name": "TERMINAL RISTORANTE BAR",
        "address": "V. SAN SEBASTIAN",
        "city": "TRENTO",
        "postalCode": "38121",
        "province": "TN",
        "region": "TN",
        "fraction": "TRENTO",
        "type": "RI",
        "closingDay": "",
        "vatNumber": "",
        "supplierName": "",
        "code": "0"
      }
    },
    {
      "type": "Feature",
      "geometry": {
        "type": "Point",
        "coordinates": [
          11.1813423,
          46.0902278
        ]
      },
      "properties": {
        "number": "627658",
        "name": "FAMIGLIA COOPERATIVA MARKET",
        "address": "FRAZ. SANT'AGNESE",
        "city": "CIVEZZANO",
        "postalCode": "38045",
        "province": "TN",
        "region": "TN",
        "fraction": "CIVEZZANO",
        "type": "GS",
        "closingDay": "",
        "vatNumber": "",
        "supplierName": "",
        "code": "12"
      }
    },
    {
      "type": "Feature",
      "geometry": {
        "type": "Point",
        "coordinates": [
          11.1813423,
          46.0902278
        ]
      },
      "properties": {
        "number": "627645",
        "name": "FAMIGLIA COOPERATIVA MARKET",
        "address": "V. MURIALDO",
        "city": "CIVEZZANO",
        "postalCode": "38045",
        "province": "TN",
        "region": "TN",
        "fraction": "CIVEZZANO",
        "type": "GS",
        "closingDay": "",
        "vatNumber": "",
        "supplierName": "",
        "code": "6"
      }
    },
    {
      "type": "Feature",
      "geometry": {
        "type": "Point",
        "coordinates": [
          11.0663438,
          46.0892643
        ]
      },
      "properties": {
        "number": "777926",
        "name": "SKYLINE BAR",
        "address": "V. COLTURA",
        "city": "TRENTO",
        "postalCode": "38123",
        "province": "TN",
        "region": "TN",
        "fraction": "TRENTO",
        "type": "TC",
        "closingDay": "",
        "vatNumber": "",
        "supplierName": "",
        "code": "0"
      }
    },
    {
      "type": "Feature",
      "geometry": {
        "type": "Point",
        "coordinates": [
          11.0653498,
          46.0882425
        ]
      },
      "properties": {
        "number": "823370",
        "name": "LA STUBE DEL GALLETTO",
        "address": "S.DA CADINE",
        "city": "TRENTO",
        "postalCode": "38123",
        "province": "TN",
        "region": "TN",
        "fraction": "TRENTO",
        "type": "RI",
        "closingDay": "",
        "vatNumber": "",
        "supplierName": "",
        "code": "3"
      }
    }
  ]
}